header: 
  seq: 508
  stamp: 
    secs: 1752028464
    nsecs: 365000000
  frame_id: "imu_link"
orientation: 
  x: 0.00706004503749908
  y: 0.00116675131379393
  z: -0.001252500427693462
  w: 0.9999736125009095
orientation_covariance: [-1.0, 0.0, 0.0, 0.0, 0.0, 0.0, 0.0, 0.0, 0.0]
angular_velocity: 
  x: 1.0429915778230389e-299
  y: 6.9520369779118e-310
  z: 4e-323
angular_velocity_covariance: [-1.0, 0.0, 0.0, 0.0, 0.0, 0.0, 0.0, 0.0, 0.0]
linear_acceleration: 
  x: -0.012754214786859784
  y: -0.01725359567867955
  z: 0.00789860883923687
linear_acceleration_covariance: [0.01, 0.0, 0.0, 0.0, 0.01, 0.0, 0.0, 0.0, 0.01]
---
header: 
  seq: 509
  stamp: 
    secs: 1752028464
    nsecs: 397000000
  frame_id: "imu_link"
orientation: 
  x: 0.007059195856056248
  y: 0.0011656721537909318
  z: -0.0012525892857864424
  w: 0.9999736196432265
orientation_covariance: [-1.0, 0.0, 0.0, 0.0, 0.0, 0.0, 0.0, 0.0, 0.0]
angular_velocity: 
  x: 1.0429915778656825e-299
  y: 6.9520369779118e-310
  z: 4e-323
angular_velocity_covariance: [-1.0, 0.0, 0.0, 0.0, 0.0, 0.0, 0.0, 0.0, 0.0]
linear_acceleration: 
  x: -0.0006545212478992548
  y: 0.0015780182181745388
  z: 0.0014530572352846357
linear_acceleration_covariance: [0.01, 0.0, 0.0, 0.0, 0.01, 0.0, 0.0, 0.0, 0.01]
---
header: 
  seq: 510
  stamp: 
    secs: 1752028464
    nsecs: 429000000
  frame_id: "imu_link"
orientation: 
  x: 0.007060102879873801
  y: 0.001166627130047338
  z: -0.001252727714841238
  w: 0.9999736119527043
orientation_covariance: [-1.0, 0.0, 0.0, 0.0, 0.0, 0.0, 0.0, 0.0, 0.0]
angular_velocity: 
  x: 1.042991577908462e-299
  y: 6.9520369779118e-310
  z: 4e-323
angular_velocity_covariance: [-1.0, 0.0, 0.0, 0.0, 0.0, 0.0, 0.0, 0.0, 0.0]
linear_acceleration: 
  x: 0.008944142922907456
  y: 0.009684123389336202
  z: -0.0016723238384042595
linear_acceleration_covariance: [0.01, 0.0, 0.0, 0.0, 0.01, 0.0, 0.0, 0.0, 0.01]
---
header: 
  seq: 511
  stamp: 
    secs: 1752028464
    nsecs: 463000000
  frame_id: "imu_link"
orientation: 
  x: 0.00705925740063629
  y: 0.001165855458911153
  z: -0.0012527651086963196
  w: 0.9999736187748067
orientation_covariance: [-1.0, 0.0, 0.0, 0.0, 0.0, 0.0, 0.0, 0.0, 0.0]
angular_velocity: 
  x: 1.0429915779523618e-299
  y: 6.9520369779118e-310
  z: 4e-323
angular_velocity_covariance: [-1.0, 0.0, 0.0, 0.0, 0.0, 0.0, 0.0, 0.0, 0.0]
linear_acceleration: 
  x: -0.008169062706919444
  y: -0.008083366935813237
  z: 0.0011845204114253355
linear_acceleration_covariance: [0.01, 0.0, 0.0, 0.0, 0.01, 0.0, 0.0, 0.0, 0.01]
---
header: 
  seq: 512
  stamp: 
    secs: 1752028464
    nsecs: 496000000
  frame_id: "imu_link"
orientation: 
  x: 0.007061203495607518
  y: 0.0011682592319766658
  z: -0.001253068560257372
  w: 0.9999736018489405
orientation_covariance: [-1.0, 0.0, 0.0, 0.0, 0.0, 0.0, 0.0, 0.0, 0.0]
angular_velocity: 
  x: 1.0429915779972462e-299
  y: 6.9520369779118e-310
  z: 4e-323
angular_velocity_covariance: [-1.0, 0.0, 0.0, 0.0, 0.0, 0.0, 0.0, 0.0, 0.0]
linear_acceleration: 
  x: 0.012556946901759654
  y: 0.014678075520558864
  z: -0.00874770646830227
linear_acceleration_covariance: [0.01, 0.0, 0.0, 0.0, 0.01, 0.0, 0.0, 0.0, 0.01]
---
header: 
  seq: 513
  stamp: 
    secs: 1752028464
    nsecs: 530000000
  frame_id: "imu_link"
orientation: 
  x: 0.00705995258156789
  y: 0.0011669429402549902
  z: -0.0012529768787864293
  w: 0.9999736123331763
orientation_covariance: [-1.0, 0.0, 0.0, 0.0, 0.0, 0.0, 0.0, 0.0, 0.0]
angular_velocity: 
  x: 1.042991578041214e-299
  y: 6.9520369779118e-310
  z: 4e-323
angular_velocity_covariance: [-1.0, 0.0, 0.0, 0.0, 0.0, 0.0, 0.0, 0.0, 0.0]
linear_acceleration: 
  x: -0.012989094796267624
  y: -0.016640658177371204
  z: 0.007781692740317019
linear_acceleration_covariance: [0.01, 0.0, 0.0, 0.0, 0.01, 0.0, 0.0, 0.0, 0.01]
---
header: 
  seq: 514
  stamp: 
    secs: 1752028464
    nsecs: 562000000
  frame_id: "imu_link"
orientation: 
  x: 0.007059898951899378
  y: 0.0011678803812505698
  z: -0.0012531971729284404
  w: 0.9999736113413443
orientation_covariance: [-1.0, 0.0, 0.0, 0.0, 0.0, 0.0, 0.0, 0.0, 0.0]
angular_velocity: 
  x: 1.0429915780845027e-299
  y: 6.9520369779118e-310
  z: 4e-323
angular_velocity_covariance: [-1.0, 0.0, 0.0, 0.0, 0.0, 0.0, 0.0, 0.0, 0.0]
linear_acceleration: 
  x: 0.002462277544319324
  y: 0.009632684323651563
  z: 0.002207947866155892
linear_acceleration_covariance: [0.01, 0.0, 0.0, 0.0, 0.01, 0.0, 0.0, 0.0, 0.01]
---
header: 
  seq: 515
  stamp: 
    secs: 1752028464
    nsecs: 596000000
  frame_id: "imu_link"
orientation: 
  x: 0.007060208128308407
  y: 0.0011675734544538136
  z: -0.001253393062302822
  w: 0.9999736092713871
orientation_covariance: [-1.0, 0.0, 0.0, 0.0, 0.0, 0.0, 0.0, 0.0, 0.0]
angular_velocity: 
  x: 1.0429915781296588e-299
  y: 6.9520369779118e-310
  z: 4e-323
angular_velocity_covariance: [-1.0, 0.0, 0.0, 0.0, 0.0, 0.0, 0.0, 0.0, 0.0]
linear_acceleration: 
  x: 0.004451190509255011
  y: -0.00538794254361206
  z: -0.002798470800710678
linear_acceleration_covariance: [0.01, 0.0, 0.0, 0.0, 0.01, 0.0, 0.0, 0.0, 0.01]
---
header: 
  seq: 516
  stamp: 
    secs: 1752028464
    nsecs: 630000000
  frame_id: "imu_link"
orientation: 
  x: 0.007059326317182792
  y: 0.0011666151083331866
  z: -0.0012534406940966302
  w: 0.9999736165557386
orientation_covariance: [-1.0, 0.0, 0.0, 0.0, 0.0, 0.0, 0.0, 0.0, 0.0]
angular_velocity: 
  x: 1.0429915781741358e-299
  y: 6.9520369779118e-310
  z: 4e-323
angular_velocity_covariance: [-1.0, 0.0, 0.0, 0.0, 0.0, 0.0, 0.0, 0.0, 0.0]
linear_acceleration: 
  x: -0.006631089209439487
  y: -0.0033079770507700407
  z: 0.0015406682125539096
linear_acceleration_covariance: [0.01, 0.0, 0.0, 0.0, 0.01, 0.0, 0.0, 0.0, 0.01]
---
header: 
  seq: 517
  stamp: 
    secs: 1752028464
    nsecs: 662000000
  frame_id: "imu_link"
orientation: 
  x: 0.007061118710758962
  y: 0.0011676820185684842
  z: -0.0012538460913995586
  w: 0.9999736021471943
orientation_covariance: [-1.0, 0.0, 0.0, 0.0, 0.0, 0.0, 0.0, 0.0, 0.0]
angular_velocity: 
  x: 1.0429915782175264e-299
  y: 6.9520369779118e-310
  z: 4e-323
angular_velocity_covariance: [-1.0, 0.0, 0.0, 0.0, 0.0, 0.0, 0.0, 0.0, 0.0]
linear_acceleration: 
  x: 0.012025015129535313
  y: 0.008540855735942312
  z: -0.009003865384414474
linear_acceleration_covariance: [0.01, 0.0, 0.0, 0.0, 0.01, 0.0, 0.0, 0.0, 0.01]
---
header: 
  seq: 518
  stamp: 
    secs: 1752028464
    nsecs: 750000000
  frame_id: "imu_link"
orientation: 
  x: 0.00705989950751249
  y: 0.001166785722116149
  z: -0.0012536408845012928
  w: 0.9999736120591161
orientation_covariance: [-1.0, 0.0, 0.0, 0.0, 0.0, 0.0, 0.0, 0.0, 0.0]
angular_velocity: 
  x: 1.0429915783335062e-299
  y: 6.9520369779118e-310
  z: 4e-323
angular_velocity_covariance: [-1.0, 0.0, 0.0, 0.0, 0.0, 0.0, 0.0, 0.0, 0.0]
linear_acceleration: 
  x: -0.012285714235618101
  y: -0.006576603380621888
  z: 0.00797991208043337
linear_acceleration_covariance: [0.01, 0.0, 0.0, 0.0, 0.01, 0.0, 0.0, 0.0, 0.01]
---
header: 
  seq: 519
  stamp: 
    secs: 1752028464
    nsecs: 783000000
  frame_id: "imu_link"
orientation: 
  x: 0.00705989950751249
  y: 0.001166785722116149
  z: -0.0012536408845012928
  w: 0.9999736120591161
orientation_covariance: [-1.0, 0.0, 0.0, 0.0, 0.0, 0.0, 0.0, 0.0, 0.0]
angular_velocity: 
  x: 1.042991578376761e-299
  y: 6.9520369779118e-310
  z: 4e-323
angular_velocity_covariance: [-1.0, 0.0, 0.0, 0.0, 0.0, 0.0, 0.0, 0.0, 0.0]
linear_acceleration: 
  x: 0.0022334366094538564
  y: 0.0013009232949113502
  z: 0.0022625742746014573
linear_acceleration_covariance: [0.01, 0.0, 0.0, 0.0, 0.01, 0.0, 0.0, 0.0, 0.01]
---
header: 
  seq: 520
  stamp: 
    secs: 1752028464
    nsecs: 817000000
  frame_id: "imu_link"
orientation: 
  x: 0.007059976020482283
  y: 0.0011674096299151013
  z: -0.001253836042755878
  w: 0.9999736105460604
orientation_covariance: [-1.0, 0.0, 0.0, 0.0, 0.0, 0.0, 0.0, 0.0, 0.0]
angular_velocity: 
  x: 1.0429915784227319e-299
  y: 6.9520369779118e-310
  z: 4e-323
angular_velocity_covariance: [-1.0, 0.0, 0.0, 0.0, 0.0, 0.0, 0.0, 0.0, 0.0]
linear_acceleration: 
  x: 0.003746955541527751
  y: 0.005206885970457311
  z: -0.0029056699461682324
linear_acceleration_covariance: [0.01, 0.0, 0.0, 0.0, 0.01, 0.0, 0.0, 0.0, 0.01]
---
header: 
  seq: 521
  stamp: 
    secs: 1752028464
    nsecs: 850000000
  frame_id: "imu_link"
orientation: 
  x: 0.007059126476203414
  y: 0.0011664917983190699
  z: -0.0012540478100195678
  w: 0.9999736173491617
orientation_covariance: [-1.0, 0.0, 0.0, 0.0, 0.0, 0.0, 0.0, 0.0, 0.0]
angular_velocity: 
  x: 1.0429915784658848e-299
  y: 6.9520369779118e-310
  z: 4e-323
angular_velocity_covariance: [-1.0, 0.0, 0.0, 0.0, 0.0, 0.0, 0.0, 0.0, 0.0]
linear_acceleration: 
  x: -0.005540120648530016
  y: -0.008419279870257977
  z: 0.0017639950168537822
linear_acceleration_covariance: [0.01, 0.0, 0.0, 0.0, 0.01, 0.0, 0.0, 0.0, 0.01]
---
header: 
  seq: 522
  stamp: 
    secs: 1752028464
    nsecs: 883000000
  frame_id: "imu_link"
orientation: 
  x: 0.007060957378934117
  y: 0.0011676653626382107
  z: -0.001254472258231867
  w: 0.9999736025205103
orientation_covariance: [-1.0, 0.0, 0.0, 0.0, 0.0, 0.0, 0.0, 0.0, 0.0]
angular_velocity: 
  x: 1.0429915785097167e-299
  y: 6.9520369779118e-310
  z: 4e-323
angular_velocity_covariance: [-1.0, 0.0, 0.0, 0.0, 0.0, 0.0, 0.0, 0.0, 0.0]
linear_acceleration: 
  x: 0.012083602020897912
  y: 0.00901464206329174
  z: -0.009078606724109298
linear_acceleration_covariance: [0.01, 0.0, 0.0, 0.0, 0.01, 0.0, 0.0, 0.0, 0.01]
---
header: 
  seq: 523
  stamp: 
    secs: 1752028464
    nsecs: 916000000
  frame_id: "imu_link"
orientation: 
  x: 0.007060719831859412
  y: 0.0011678868271409743
  z: -0.0012543571795220968
  w: 0.9999736040835684
orientation_covariance: [-1.0, 0.0, 0.0, 0.0, 0.0, 0.0, 0.0, 0.0, 0.0]
angular_velocity: 
  x: 1.0429915785541598e-299
  y: 6.9520369779118e-310
  z: 4e-323
angular_velocity_covariance: [-1.0, 0.0, 0.0, 0.0, 0.0, 0.0, 0.0, 0.0, 0.0]
linear_acceleration: 
  x: -0.00912092883079881
  y: -0.0028348044694733255
  z: 0.008939373699491115
linear_acceleration_covariance: [0.01, 0.0, 0.0, 0.0, 0.01, 0.0, 0.0, 0.0, 0.01]
---
header: 
  seq: 524
  stamp: 
    secs: 1752028464
    nsecs: 950000000
  frame_id: "imu_link"
orientation: 
  x: 0.007059184572915771
  y: 0.001166605337348082
  z: -0.0012542692490393685
  w: 0.9999736165288579
orientation_covariance: [-1.0, 0.0, 0.0, 0.0, 0.0, 0.0, 0.0, 0.0, 0.0]
angular_velocity: 
  x: 1.0429915785986368e-299
  y: 6.9520369779118e-310
  z: 4e-323
angular_velocity_covariance: [-1.0, 0.0, 0.0, 0.0, 0.0, 0.0, 0.0, 0.0, 0.0]
linear_acceleration: 
  x: -0.005677616623446564
  y: -0.00674882573196782
  z: -0.00012935518459648908
linear_acceleration_covariance: [0.01, 0.0, 0.0, 0.0, 0.01, 0.0, 0.0, 0.0, 0.01]
---
header: 
  seq: 525
  stamp: 
    secs: 1752028464
    nsecs: 984000000
  frame_id: "imu_link"
orientation: 
  x: 0.007059945175846189
  y: 0.0011675945677175352
  z: -0.0012544829885092425
  w: 0.9999736097365125
orientation_covariance: [-1.0, 0.0, 0.0, 0.0, 0.0, 0.0, 0.0, 0.0, 0.0]
angular_velocity: 
  x: 1.042991578643759e-299
  y: 6.9520369779118e-310
  z: 4e-323
angular_velocity_covariance: [-1.0, 0.0, 0.0, 0.0, 0.0, 0.0, 0.0, 0.0, 0.0]
linear_acceleration: 
  x: 0.010202685581095322
  y: 0.009682190711234046
  z: -0.0012074242435665603
linear_acceleration_covariance: [0.01, 0.0, 0.0, 0.0, 0.01, 0.0, 0.0, 0.0, 0.01]
---
header: 
  seq: 526
  stamp: 
    secs: 1752028465
    nsecs:  16000000
  frame_id: "imu_link"
orientation: 
  x: 0.007059054511403325
  y: 0.0011667431908766747
  z: -0.0012545418906646667
  w: 0.9999736169441553
orientation_covariance: [-1.0, 0.0, 0.0, 0.0, 0.0, 0.0, 0.0, 0.0, 0.0]
angular_velocity: 
  x: 1.0429915786869119e-299
  y: 6.9520369779118e-310
  z: 4e-323
angular_velocity_covariance: [-1.0, 0.0, 0.0, 0.0, 0.0, 0.0, 0.0, 0.0, 0.0]
linear_acceleration: 
  x: -0.007796434020966269
  y: -0.008634248857415405
  z: 0.001465343857443001
linear_acceleration_covariance: [0.01, 0.0, 0.0, 0.0, 0.01, 0.0, 0.0, 0.0, 0.01]
---
header: 
  seq: 527
  stamp: 
    secs: 1752028465
    nsecs:  99000000
  frame_id: "imu_link"
orientation: 
  x: 0.007060999202583494
  y: 0.0011692316014372268
  z: -0.0012550190876695977
  w: 0.999973599708919
orientation_covariance: [-1.0, 0.0, 0.0, 0.0, 0.0, 0.0, 0.0, 0.0, 0.0]
angular_velocity: 
  x: 1.0429915787971538e-299
  y: 6.9520369779118e-310
  z: 4e-323
angular_velocity_covariance: [-1.0, 0.0, 0.0, 0.0, 0.0, 0.0, 0.0, 0.0, 0.0]
linear_acceleration: 
  x: 0.012867682343837368
  y: 0.015376821400542112
  z: -0.00866594584253692
linear_acceleration_covariance: [0.01, 0.0, 0.0, 0.0, 0.01, 0.0, 0.0, 0.0, 0.01]
---
header: 
  seq: 528
  stamp: 
    secs: 1752028465
    nsecs: 129000000
  frame_id: "imu_link"
orientation: 
  x: 0.007059896745543557
  y: 0.0011680670754752054
  z: -0.0012548826052377
  w: 0.9999736090252065
orientation_covariance: [-1.0, 0.0, 0.0, 0.0, 0.0, 0.0, 0.0, 0.0, 0.0]
angular_velocity: 
  x: 1.0429915788366399e-299
  y: 6.9520369779118e-310
  z: 4e-323
angular_velocity_covariance: [-1.0, 0.0, 0.0, 0.0, 0.0, 0.0, 0.0, 0.0, 0.0]
linear_acceleration: 
  x: -0.012283455662089729
  y: -0.01600246573731783
  z: 0.007924384606908174
linear_acceleration_covariance: [0.01, 0.0, 0.0, 0.0, 0.01, 0.0, 0.0, 0.0, 0.01]
---
header: 
  seq: 529
  stamp: 
    secs: 1752028465
    nsecs: 164000000
  frame_id: "imu_link"
orientation: 
  x: 0.007059144458634986
  y: 0.0011672907136002786
  z: -0.0012549483495837646
  w: 0.999973615160191
orientation_covariance: [-1.0, 0.0, 0.0, 0.0, 0.0, 0.0, 0.0, 0.0, 0.0]
angular_velocity: 
  x: 1.042991578882475e-299
  y: 6.9520369779118e-310
  z: 4e-323
angular_velocity_covariance: [-1.0, 0.0, 0.0, 0.0, 0.0, 0.0, 0.0, 0.0, 0.0]
linear_acceleration: 
  x: -0.000649479732514239
  y: 0.0008392041400442855
  z: 0.001233574421305159
linear_acceleration_covariance: [0.01, 0.0, 0.0, 0.0, 0.01, 0.0, 0.0, 0.0, 0.01]
---
header: 
  seq: 530
  stamp: 
    secs: 1752028465
    nsecs: 198000000
  frame_id: "imu_link"
orientation: 
  x: 0.007059700488979169
  y: 0.0011669141408702244
  z: -0.0012552634753189235
  w: 0.9999736112788182
orientation_covariance: [-1.0, 0.0, 0.0, 0.0, 0.0, 0.0, 0.0, 0.0, 0.0]
angular_velocity: 
  x: 1.0429915789271557e-299
  y: 6.9520369779118e-310
  z: 4e-323
angular_velocity_covariance: [-1.0, 0.0, 0.0, 0.0, 0.0, 0.0, 0.0, 0.0, 0.0]
linear_acceleration: 
  x: 0.0069925926594369405
  y: 0.0012505610001026337
  z: -0.0020604518041915675
linear_acceleration_covariance: [0.01, 0.0, 0.0, 0.0, 0.01, 0.0, 0.0, 0.0, 0.01]
---
header: 
  seq: 531
  stamp: 
    secs: 1752028465
    nsecs: 231000000
  frame_id: "imu_link"
orientation: 
  x: 0.007058840348483118
  y: 0.001166739490344127
  z: -0.0012551643485044027
  w: 0.9999736176791638
orientation_covariance: [-1.0, 0.0, 0.0, 0.0, 0.0, 0.0, 0.0, 0.0, 0.0]
angular_velocity: 
  x: 1.0429915789709537e-299
  y: 6.9520369779118e-310
  z: 4e-323
angular_velocity_covariance: [-1.0, 0.0, 0.0, 0.0, 0.0, 0.0, 0.0, 0.0, 0.0]
linear_acceleration: 
  x: -0.006922303782876512
  y: 0.0023330221856815185
  z: 0.001491852675710742
linear_acceleration_covariance: [0.01, 0.0, 0.0, 0.0, 0.01, 0.0, 0.0, 0.0, 0.01]
---
header: 
  seq: 532
  stamp: 
    secs: 1752028465
    nsecs: 264000000
  frame_id: "imu_link"
orientation: 
  x: 0.007060664563145335
  y: 0.0011681264911553588
  z: -0.0012555766322260935
  w: 0.9999736026634645
orientation_covariance: [-1.0, 0.0, 0.0, 0.0, 0.0, 0.0, 0.0, 0.0, 0.0]
angular_velocity: 
  x: 1.0429915790154308e-299
  y: 6.9520369779118e-310
  z: 4e-323
angular_velocity_covariance: [-1.0, 0.0, 0.0, 0.0, 0.0, 0.0, 0.0, 0.0, 0.0]
linear_acceleration: 
  x: 0.012265363707183308
  y: 0.005849946868265202
  z: -0.00878940780910586
linear_acceleration_covariance: [0.01, 0.0, 0.0, 0.0, 0.01, 0.0, 0.0, 0.0, 0.01]
---
header: 
  seq: 533
  stamp: 
    secs: 1752028465
    nsecs: 297000000
  frame_id: "imu_link"
orientation: 
  x: 0.00706047416189132
  y: 0.0011685403237024225
  z: -0.0012554820777143242
  w: 0.9999736036430529
orientation_covariance: [-1.0, 0.0, 0.0, 0.0, 0.0, 0.0, 0.0, 0.0, 0.0]
angular_velocity: 
  x: 1.0429915790592288e-299
  y: 6.9520369779118e-310
  z: 4e-323
angular_velocity_covariance: [-1.0, 0.0, 0.0, 0.0, 0.0, 0.0, 0.0, 0.0, 0.0]
linear_acceleration: 
  x: -0.008758449095083819
  y: -0.0030419486501266552
  z: 0.00882812272091443
linear_acceleration_covariance: [0.01, 0.0, 0.0, 0.0, 0.01, 0.0, 0.0, 0.0, 0.01]
---
header: 
  seq: 534
  stamp: 
    secs: 1752028465
    nsecs: 330000000
  frame_id: "imu_link"
orientation: 
  x: 0.007058979425728647
  y: 0.0011671582115617147
  z: -0.001255542667003244
  w: 0.9999736157338291
orientation_covariance: [-1.0, 0.0, 0.0, 0.0, 0.0, 0.0, 0.0, 0.0, 0.0]
angular_velocity: 
  x: 1.0429915791024156e-299
  y: 6.9520369779118e-310
  z: 4e-323
angular_velocity_covariance: [-1.0, 0.0, 0.0, 0.0, 0.0, 0.0, 0.0, 0.0, 0.0]
linear_acceleration: 
  x: -0.005614445742311544
  y: -0.008557428082407505
  z: -5.76435309699618e-05
linear_acceleration_covariance: [0.01, 0.0, 0.0, 0.0, 0.01, 0.0, 0.0, 0.0, 0.01]
---
header: 
  seq: 535
  stamp: 
    secs: 1752028465
    nsecs: 364000000
  frame_id: "imu_link"
orientation: 
  x: 0.007059740521804335
  y: 0.0011675573398920733
  z: -0.0012558107550760891
  w: 0.9999736095582572
orientation_covariance: [-1.0, 0.0, 0.0, 0.0, 0.0, 0.0, 0.0, 0.0, 0.0]
angular_velocity: 
  x: 1.0429915791482168e-299
  y: 6.9520369779118e-310
  z: 4e-323
angular_velocity_covariance: [-1.0, 0.0, 0.0, 0.0, 0.0, 0.0, 0.0, 0.0, 0.0]
linear_acceleration: 
  x: 0.009936614619725812
  y: 0.00763159553238636
  z: -0.0014385483703473196
linear_acceleration_covariance: [0.01, 0.0, 0.0, 0.0, 0.01, 0.0, 0.0, 0.0, 0.01]
---
header: 
  seq: 536
  stamp: 
    secs: 1752028465
    nsecs: 398000000
  frame_id: "imu_link"
orientation: 
  x: 0.00705890654026645
  y: 0.0011668659909032657
  z: -0.0012558133481209513
  w: 0.9999736162494736
orientation_covariance: [-1.0, 0.0, 0.0, 0.0, 0.0, 0.0, 0.0, 0.0, 0.0]
angular_velocity: 
  x: 1.0429915791933728e-299
  y: 6.9520369779118e-310
  z: 4e-323
angular_velocity_covariance: [-1.0, 0.0, 0.0, 0.0, 0.0, 0.0, 0.0, 0.0, 0.0]
linear_acceleration: 
  x: -0.0075659604825759055
  y: -0.0046972211500331
  z: 0.0014928260019690814
linear_acceleration_covariance: [0.01, 0.0, 0.0, 0.0, 0.01, 0.0, 0.0, 0.0, 0.01]
---
header: 
  seq: 537
  stamp: 
    secs: 1752028465
    nsecs: 484000000
  frame_id: "imu_link"
orientation: 
  x: 0.007060831999800156
  y: 0.0011687943803427036
  z: -0.001256126019433022
  w: 0.9999736000108156
orientation_covariance: [-1.0, 0.0, 0.0, 0.0, 0.0, 0.0, 0.0, 0.0, 0.0]
angular_velocity: 
  x: 1.0429915793066025e-299
  y: 6.9520369779118e-310
  z: 4e-323
angular_velocity_covariance: [-1.0, 0.0, 0.0, 0.0, 0.0, 0.0, 0.0, 0.0, 0.0]
linear_acceleration: 
  x: 0.012485000065349363
  y: 0.01158488727080021
  z: -0.008925188493271782
linear_acceleration_covariance: [0.01, 0.0, 0.0, 0.0, 0.01, 0.0, 0.0, 0.0, 0.01]
---
header: 
  seq: 538
  stamp: 
    secs: 1752028465
    nsecs: 517000000
  frame_id: "imu_link"
orientation: 
  x: 0.007059744784737094
  y: 0.0011678269857570433
  z: -0.0012559744267751371
  w: 0.9999736090077304
orientation_covariance: [-1.0, 0.0, 0.0, 0.0, 0.0, 0.0, 0.0, 0.0, 0.0]
angular_velocity: 
  x: 1.0429915793511475e-299
  y: 6.9520369779118e-310
  z: 4e-323
angular_velocity_covariance: [-1.0, 0.0, 0.0, 0.0, 0.0, 0.0, 0.0, 0.0, 0.0]
linear_acceleration: 
  x: -0.012107578887467994
  y: -0.011924527409812572
  z: 0.008242400712354023
linear_acceleration_covariance: [0.01, 0.0, 0.0, 0.0, 0.01, 0.0, 0.0, 0.0, 0.01]
---
header: 
  seq: 539
  stamp: 
    secs: 1752028465
    nsecs: 549000000
  frame_id: "imu_link"
orientation: 
  x: 0.007059744784737094
  y: 0.0011678269857570433
  z: -0.0012559744267751371
  w: 0.9999736090077304
orientation_covariance: [-1.0, 0.0, 0.0, 0.0, 0.0, 0.0, 0.0, 0.0, 0.0]
angular_velocity: 
  x: 1.0429915793937232e-299
  y: 6.9520369779118e-310
  z: 4e-323
angular_velocity_covariance: [-1.0, 0.0, 0.0, 0.0, 0.0, 0.0, 0.0, 0.0, 0.0]
linear_acceleration: 
  x: 0.0018041024192128492
  y: 0.0038210376790374857
  z: 0.001578152502304744
linear_acceleration_covariance: [0.01, 0.0, 0.0, 0.0, 0.01, 0.0, 0.0, 0.0, 0.01]
---
header: 
  seq: 540
  stamp: 
    secs: 1752028465
    nsecs: 582000000
  frame_id: "imu_link"
orientation: 
  x: 0.007059775664869904
  y: 0.0011679753354033049
  z: -0.0012564379367487897
  w: 0.9999736080341765
orientation_covariance: [-1.0, 0.0, 0.0, 0.0, 0.0, 0.0, 0.0, 0.0, 0.0]
angular_velocity: 
  x: 1.0429915794374872e-299
  y: 6.9520369779118e-310
  z: 4e-323
angular_velocity_covariance: [-1.0, 0.0, 0.0, 0.0, 0.0, 0.0, 0.0, 0.0, 0.0]
linear_acceleration: 
  x: 0.0030968413738089603
  y: -0.0006611604338832876
  z: -0.002774381890569428
linear_acceleration_covariance: [0.01, 0.0, 0.0, 0.0, 0.01, 0.0, 0.0, 0.0, 0.01]
---
header: 
  seq: 541
  stamp: 
    secs: 1752028465
    nsecs: 617000000
  frame_id: "imu_link"
orientation: 
  x: 0.007058845422834781
  y: 0.0011668839689102102
  z: -0.0012564816091704758
  w: 0.9999736158204702
orientation_covariance: [-1.0, 0.0, 0.0, 0.0, 0.0, 0.0, 0.0, 0.0, 0.0]
angular_velocity: 
  x: 1.0429915794829489e-299
  y: 6.9520369779118e-310
  z: 4e-323
angular_velocity_covariance: [-1.0, 0.0, 0.0, 0.0, 0.0, 0.0, 0.0, 0.0, 0.0]
linear_acceleration: 
  x: -0.00574891057775106
  y: -0.005072265182264917
  z: 0.0018714480333271485
linear_acceleration_covariance: [0.01, 0.0, 0.0, 0.0, 0.01, 0.0, 0.0, 0.0, 0.01]
---
header: 
  seq: 542
  stamp: 
    secs: 1752028465
    nsecs: 650000000
  frame_id: "imu_link"
orientation: 
  x: 0.007060707367753279
  y: 0.0011686588147728505
  z: -0.0012567816537655764
  w: 0.9999736002254842
orientation_covariance: [-1.0, 0.0, 0.0, 0.0, 0.0, 0.0, 0.0, 0.0, 0.0]
angular_velocity: 
  x: 1.0429915795268148e-299
  y: 6.9520369779118e-310
  z: 4e-323
angular_velocity_covariance: [-1.0, 0.0, 0.0, 0.0, 0.0, 0.0, 0.0, 0.0, 0.0]
linear_acceleration: 
  x: 0.01257965582367168
  y: 0.013080854006256613
  z: -0.008936589210646204
linear_acceleration_covariance: [0.01, 0.0, 0.0, 0.0, 0.01, 0.0, 0.0, 0.0, 0.01]
---
header: 
  seq: 543
  stamp: 
    secs: 1752028465
    nsecs: 683000000
  frame_id: "imu_link"
orientation: 
  x: 0.007059595225379584
  y: 0.0011676227248999262
  z: -0.001256618835189996
  w: 0.9999736094925352
orientation_covariance: [-1.0, 0.0, 0.0, 0.0, 0.0, 0.0, 0.0, 0.0, 0.0]
angular_velocity: 
  x: 1.0429915795708165e-299
  y: 6.9520369779118e-310
  z: 4e-323
angular_velocity_covariance: [-1.0, 0.0, 0.0, 0.0, 0.0, 0.0, 0.0, 0.0, 0.0]
linear_acceleration: 
  x: -0.012022748353664521
  y: -0.01146111542819755
  z: 0.008416144507047795
linear_acceleration_covariance: [0.01, 0.0, 0.0, 0.0, 0.01, 0.0, 0.0, 0.0, 0.01]
---
header: 
  seq: 544
  stamp: 
    secs: 1752028465
    nsecs: 715000000
  frame_id: "imu_link"
orientation: 
  x: 0.007059595225379584
  y: 0.0011676227248999262
  z: -0.001256618835189996
  w: 0.9999736094925352
orientation_covariance: [-1.0, 0.0, 0.0, 0.0, 0.0, 0.0, 0.0, 0.0, 0.0]
angular_velocity: 
  x: 1.0429915796139354e-299
  y: 6.9520369779118e-310
  z: 4e-323
angular_velocity_covariance: [-1.0, 0.0, 0.0, 0.0, 0.0, 0.0, 0.0, 0.0, 0.0]
linear_acceleration: 
  x: 0.001939322613536316
  y: 0.0042214322218347864
  z: 0.0016608055830152726
linear_acceleration_covariance: [0.01, 0.0, 0.0, 0.0, 0.01, 0.0, 0.0, 0.0, 0.01]
---
header: 
  seq: 545
  stamp: 
    secs: 1752028465
    nsecs: 750000000
  frame_id: "imu_link"
orientation: 
  x: 0.0070595191966544325
  y: 0.001167890986021159
  z: -0.0012570481060674714
  w: 0.9999736091764702
orientation_covariance: [-1.0, 0.0, 0.0, 0.0, 0.0, 0.0, 0.0, 0.0, 0.0]
angular_velocity: 
  x: 1.0429915796597366e-299
  y: 6.9520369779118e-310
  z: 4e-323
angular_velocity_covariance: [-1.0, 0.0, 0.0, 0.0, 0.0, 0.0, 0.0, 0.0, 0.0]
linear_acceleration: 
  x: 0.002876172808613539
  y: -0.00021430684498192055
  z: -0.0030668852950352958
linear_acceleration_covariance: [0.01, 0.0, 0.0, 0.0, 0.01, 0.0, 0.0, 0.0, 0.01]
---
header: 
  seq: 546
  stamp: 
    secs: 1752028465
    nsecs: 833000000
  frame_id: "imu_link"
orientation: 
  x: 0.007058694537734449
  y: 0.001167071623312505
  z: -0.0012570627182569858
  w: 0.999973615936226
orientation_covariance: [-1.0, 0.0, 0.0, 0.0, 0.0, 0.0, 0.0, 0.0, 0.0]
angular_velocity: 
  x: 1.0429915797699785e-299
  y: 6.9520369779118e-310
  z: 4e-323
angular_velocity_covariance: [-1.0, 0.0, 0.0, 0.0, 0.0, 0.0, 0.0, 0.0, 0.0]
linear_acceleration: 
  x: -0.005005814228765818
  y: -0.0043679036732774444
  z: 0.002285063451688535
linear_acceleration_covariance: [0.01, 0.0, 0.0, 0.0, 0.01, 0.0, 0.0, 0.0, 0.01]
---
header: 
  seq: 547
  stamp: 
    secs: 1752028465
    nsecs: 864000000
  frame_id: "imu_link"
orientation: 
  x: 0.00706072959542501
  y: 0.0011693217191191554
  z: -0.001257354888423443
  w: 0.9999735985729735
orientation_covariance: [-1.0, 0.0, 0.0, 0.0, 0.0, 0.0, 0.0, 0.0, 0.0]
angular_velocity: 
  x: 1.0429915798111283e-299
  y: 6.9520369779118e-310
  z: 4e-323
angular_velocity_covariance: [-1.0, 0.0, 0.0, 0.0, 0.0, 0.0, 0.0, 0.0, 0.0]
linear_acceleration: 
  x: 0.013082456174821372
  y: 0.014408796260308446
  z: -0.009228239427826327
linear_acceleration_covariance: [0.01, 0.0, 0.0, 0.0, 0.01, 0.0, 0.0, 0.0, 0.01]
---
header: 
  seq: 548
  stamp: 
    secs: 1752028465
    nsecs: 897000000
  frame_id: "imu_link"
orientation: 
  x: 0.007059555657138871
  y: 0.001168024167310934
  z: -0.001257293907550362
  w: 0.9999736084544922
orientation_covariance: [-1.0, 0.0, 0.0, 0.0, 0.0, 0.0, 0.0, 0.0, 0.0]
angular_velocity: 
  x: 1.0429915798549941e-299
  y: 6.9520369779118e-310
  z: 4e-323
angular_velocity_covariance: [-1.0, 0.0, 0.0, 0.0, 0.0, 0.0, 0.0, 0.0, 0.0]
linear_acceleration: 
  x: -0.012976479911034889
  y: -0.01570099491977443
  z: 0.00788386364775788
linear_acceleration_covariance: [0.01, 0.0, 0.0, 0.0, 0.01, 0.0, 0.0, 0.0, 0.01]
---
header: 
  seq: 549
  stamp: 
    secs: 1752028465
    nsecs: 931000000
  frame_id: "imu_link"
orientation: 
  x: 0.007059555657138871
  y: 0.001168024167310934
  z: -0.001257293907550362
  w: 0.9999736084544922
orientation_covariance: [-1.0, 0.0, 0.0, 0.0, 0.0, 0.0, 0.0, 0.0, 0.0]
angular_velocity: 
  x: 1.0429915798994372e-299
  y: 6.9520369779118e-310
  z: 4e-323
angular_velocity_covariance: [-1.0, 0.0, 0.0, 0.0, 0.0, 0.0, 0.0, 0.0, 0.0]
linear_acceleration: 
  x: 0.0019858021385720376
  y: 0.0060238951262862
  z: 0.0020660269354851814
linear_acceleration_covariance: [0.01, 0.0, 0.0, 0.0, 0.01, 0.0, 0.0, 0.0, 0.01]
---
header: 
  seq: 550
  stamp: 
    secs: 1752028465
    nsecs: 963000000
  frame_id: "imu_link"
orientation: 
  x: 0.007059358512908957
  y: 0.0011677694454210192
  z: -0.001257711774018213
  w: 0.999973609618275
orientation_covariance: [-1.0, 0.0, 0.0, 0.0, 0.0, 0.0, 0.0, 0.0, 0.0]
angular_velocity: 
  x: 1.042991579942726e-299
  y: 6.9520369779118e-310
  z: 4e-323
angular_velocity_covariance: [-1.0, 0.0, 0.0, 0.0, 0.0, 0.0, 0.0, 0.0, 0.0]
linear_acceleration: 
  x: 0.0024172846437714897
  y: -0.0028411811089778085
  z: -0.0029269008747149555
linear_acceleration_covariance: [0.01, 0.0, 0.0, 0.0, 0.01, 0.0, 0.0, 0.0, 0.01]
---
header: 
  seq: 551
  stamp: 
    secs: 1752028465
    nsecs: 996000000
  frame_id: "imu_link"
orientation: 
  x: 0.007059358512908957
  y: 0.0011677694454210192
  z: -0.001257711774018213
  w: 0.999973609618275
orientation_covariance: [-1.0, 0.0, 0.0, 0.0, 0.0, 0.0, 0.0, 0.0, 0.0]
angular_velocity: 
  x: 1.0429915799865579e-299
  y: 6.9520369779118e-310
  z: 4e-323
angular_velocity_covariance: [-1.0, 0.0, 0.0, 0.0, 0.0, 0.0, 0.0, 0.0, 0.0]
linear_acceleration: 
  x: -0.0017681797864023778
  y: 0.001819494002343817
  z: 0.002657789449830758
linear_acceleration_covariance: [0.01, 0.0, 0.0, 0.0, 0.01, 0.0, 0.0, 0.0, 0.01]
---
header: 
  seq: 552
  stamp: 
    secs: 1752028466
    nsecs:  29000000
  frame_id: "imu_link"
orientation: 
  x: 0.007060701602788883
  y: 0.001169081227743286
  z: -0.001258014018205246
  w: 0.9999735982228178
orientation_covariance: [-1.0, 0.0, 0.0, 0.0, 0.0, 0.0, 0.0, 0.0, 0.0]
angular_velocity: 
  x: 1.0429915800299824e-299
  y: 6.9520369779118e-310
  z: 4e-323
angular_velocity_covariance: [-1.0, 0.0, 0.0, 0.0, 0.0, 0.0, 0.0, 0.0, 0.0]
linear_acceleration: 
  x: 0.008280942289680352
  y: 0.0063426572822698965
  z: -0.010233607680204048
linear_acceleration_covariance: [0.01, 0.0, 0.0, 0.0, 0.01, 0.0, 0.0, 0.0, 0.01]
---
header: 
  seq: 553
  stamp: 
    secs: 1752028466
    nsecs:  63000000
  frame_id: "imu_link"
orientation: 
  x: 0.007060284522164067
  y: 0.001168863400790477
  z: -0.0012579805876780034
  w: 0.9999736014643875
orientation_covariance: [-1.0, 0.0, 0.0, 0.0, 0.0, 0.0, 0.0, 0.0, 0.0]
angular_velocity: 
  x: 1.0429915800745952e-299
  y: 6.9520369779118e-310
  z: 4e-323
angular_velocity_covariance: [-1.0, 0.0, 0.0, 0.0, 0.0, 0.0, 0.0, 0.0, 0.0]
linear_acceleration: 
  x: -0.008442570857340771
  y: -0.006547839783617698
  z: 0.00884176595709488
linear_acceleration_covariance: [0.01, 0.0, 0.0, 0.0, 0.01, 0.0, 0.0, 0.0, 0.01]
---
header: 
  seq: 554
  stamp: 
    secs: 1752028466
    nsecs:  97000000
  frame_id: "imu_link"
orientation: 
  x: 0.007058711103075797
  y: 0.0011676954961812877
  z: -0.0012578771205146728
  w: 0.9999736140668617
orientation_covariance: [-1.0, 0.0, 0.0, 0.0, 0.0, 0.0, 0.0, 0.0, 0.0]
angular_velocity: 
  x: 1.0429915801202266e-299
  y: 6.9520369779118e-310
  z: 4e-323
angular_velocity_covariance: [-1.0, 0.0, 0.0, 0.0, 0.0, 0.0, 0.0, 0.0, 0.0]
linear_acceleration: 
  x: -0.005502948480703172
  y: -0.0038580600256277733
  z: 0.0005686178474901191
linear_acceleration_covariance: [0.01, 0.0, 0.0, 0.0, 0.01, 0.0, 0.0, 0.0, 0.01]
---
header: 
  seq: 555
  stamp: 
    secs: 1752028466
    nsecs: 130000000
  frame_id: "imu_link"
orientation: 
  x: 0.007059359707928043
  y: 0.001168314534304827
  z: -0.001258111777584317
  w: 0.9999736084699526
orientation_covariance: [-1.0, 0.0, 0.0, 0.0, 0.0, 0.0, 0.0, 0.0, 0.0]
angular_velocity: 
  x: 1.0429915801635833e-299
  y: 6.9520369779118e-310
  z: 4e-323
angular_velocity_covariance: [-1.0, 0.0, 0.0, 0.0, 0.0, 0.0, 0.0, 0.0, 0.0]
linear_acceleration: 
  x: 0.01001836723543566
  y: 0.006838726602378531
  z: -0.0013465857592907678
linear_acceleration_covariance: [0.01, 0.0, 0.0, 0.0, 0.01, 0.0, 0.0, 0.0, 0.01]
---
header: 
  seq: 556
  stamp: 
    secs: 1752028466
    nsecs: 209000000
  frame_id: "imu_link"
orientation: 
  x: 0.007059359707928043
  y: 0.001168314534304827
  z: -0.001258111777584317
  w: 0.9999736084699526
orientation_covariance: [-1.0, 0.0, 0.0, 0.0, 0.0, 0.0, 0.0, 0.0, 0.0]
angular_velocity: 
  x: 1.0429915802684947e-299
  y: 6.9520369779118e-310
  z: 4e-323
angular_velocity_covariance: [-1.0, 0.0, 0.0, 0.0, 0.0, 0.0, 0.0, 0.0, 0.0]
linear_acceleration: 
  x: -0.004296625417179441
  y: -0.0036974664676816815
  z: 0.0022459243569961686
linear_acceleration_covariance: [0.01, 0.0, 0.0, 0.0, 0.01, 0.0, 0.0, 0.0, 0.01]
---
header: 
  seq: 557
  stamp: 
    secs: 1752028466
    nsecs: 242000000
  frame_id: "imu_link"
orientation: 
  x: 0.007060596438862952
  y: 0.0011689889015510664
  z: -0.0012586646409053221
  w: 0.9999735982545727
orientation_covariance: [-1.0, 0.0, 0.0, 0.0, 0.0, 0.0, 0.0, 0.0, 0.0]
angular_velocity: 
  x: 1.0429915803126662e-299
  y: 6.9520369779118e-310
  z: 4e-323
angular_velocity_covariance: [-1.0, 0.0, 0.0, 0.0, 0.0, 0.0, 0.0, 0.0, 0.0]
linear_acceleration: 
  x: 0.0077712703187362
  y: 0.004516837928336228
  z: -0.010355728659616743
linear_acceleration_covariance: [0.01, 0.0, 0.0, 0.0, 0.01, 0.0, 0.0, 0.0, 0.01]
---
header: 
  seq: 558
  stamp: 
    secs: 1752028466
    nsecs: 276000000
  frame_id: "imu_link"
orientation: 
  x: 0.00705946689121143
  y: 0.0011682684005129016
  z: -0.0012585129681105683
  w: 0.9999736072623444
orientation_covariance: [-1.0, 0.0, 0.0, 0.0, 0.0, 0.0, 0.0, 0.0, 0.0]
angular_velocity: 
  x: 1.0429915803568377e-299
  y: 6.9520369779118e-310
  z: 4e-323
angular_velocity_covariance: [-1.0, 0.0, 0.0, 0.0, 0.0, 0.0, 0.0, 0.0, 0.0]
linear_acceleration: 
  x: -0.01023075031360897
  y: -0.004914577422937723
  z: 0.008432236287599818
linear_acceleration_covariance: [0.01, 0.0, 0.0, 0.0, 0.01, 0.0, 0.0, 0.0, 0.01]
---
header: 
  seq: 559
  stamp: 
    secs: 1752028466
    nsecs: 309000000
  frame_id: "imu_link"
orientation: 
  x: 0.00705946689121143
  y: 0.0011682684005129016
  z: -0.0012585129681105683
  w: 0.9999736072623444
orientation_covariance: [-1.0, 0.0, 0.0, 0.0, 0.0, 0.0, 0.0, 0.0, 0.0]
angular_velocity: 
  x: 1.0429915804012128e-299
  y: 6.9520369779118e-310
  z: 4e-323
angular_velocity_covariance: [-1.0, 0.0, 0.0, 0.0, 0.0, 0.0, 0.0, 0.0, 0.0]
linear_acceleration: 
  x: 0.001729636442784828
  y: 0.00021129836631628558
  z: 0.002094753503574655
linear_acceleration_covariance: [0.01, 0.0, 0.0, 0.0, 0.01, 0.0, 0.0, 0.0, 0.01]
---
header: 
  seq: 560
  stamp: 
    secs: 1752028466
    nsecs: 343000000
  frame_id: "imu_link"
orientation: 
  x: 0.007059316233120649
  y: 0.0011683147067894095
  z: -0.0012587356052985242
  w: 0.9999736079916022
orientation_covariance: [-1.0, 0.0, 0.0, 0.0, 0.0, 0.0, 0.0, 0.0, 0.0]
angular_velocity: 
  x: 1.042991580446335e-299
  y: 6.9520369779118e-310
  z: 4e-323
angular_velocity_covariance: [-1.0, 0.0, 0.0, 0.0, 0.0, 0.0, 0.0, 0.0, 0.0]
linear_acceleration: 
  x: 0.0025742645378015235
  y: 0.002643287378099536
  z: -0.0030775064855541857
linear_acceleration_covariance: [0.01, 0.0, 0.0, 0.0, 0.01, 0.0, 0.0, 0.0, 0.01]
---
header: 
  seq: 561
  stamp: 
    secs: 1752028466
    nsecs: 376000000
  frame_id: "imu_link"
orientation: 
  x: 0.007058450328945175
  y: 0.0011673264755949493
  z: -0.0012589592673064036
  w: 0.9999736149766234
orientation_covariance: [-1.0, 0.0, 0.0, 0.0, 0.0, 0.0, 0.0, 0.0, 0.0]
angular_velocity: 
  x: 1.0429915804894539e-299
  y: 6.9520369779118e-310
  z: 4e-323
angular_velocity_covariance: [-1.0, 0.0, 0.0, 0.0, 0.0, 0.0, 0.0, 0.0, 0.0]
linear_acceleration: 
  x: -0.004623982944376329
  y: -0.0060525009334939425
  z: 0.0022551051867752392
linear_acceleration_covariance: [0.01, 0.0, 0.0, 0.0, 0.01, 0.0, 0.0, 0.0, 0.01]
---
header: 
  seq: 562
  stamp: 
    secs: 1752028466
    nsecs: 409000000
  frame_id: "imu_link"
orientation: 
  x: 0.00706042339690702
  y: 0.0011686398537328895
  z: -0.0012593068182840473
  w: 0.9999735990758385
orientation_covariance: [-1.0, 0.0, 0.0, 0.0, 0.0, 0.0, 0.0, 0.0, 0.0]
angular_velocity: 
  x: 1.0429915805344402e-299
  y: 6.9520369779118e-310
  z: 4e-323
angular_velocity_covariance: [-1.0, 0.0, 0.0, 0.0, 0.0, 0.0, 0.0, 0.0, 0.0]
linear_acceleration: 
  x: 0.012643434728332369
  y: 0.009821383504970006
  z: -0.009040444547238015
linear_acceleration_covariance: [0.01, 0.0, 0.0, 0.0, 0.01, 0.0, 0.0, 0.0, 0.01]
---
header: 
  seq: 563
  stamp: 
    secs: 1752028466
    nsecs: 442000000
  frame_id: "imu_link"
orientation: 
  x: 0.007060091376385612
  y: 0.0011687915947859462
  z: -0.0012592742810871248
  w: 0.9999736012836791
orientation_covariance: [-1.0, 0.0, 0.0, 0.0, 0.0, 0.0, 0.0, 0.0, 0.0]
angular_velocity: 
  x: 1.0429915805779666e-299
  y: 6.9520369779118e-310
  z: 4e-323
angular_velocity_covariance: [-1.0, 0.0, 0.0, 0.0, 0.0, 0.0, 0.0, 0.0, 0.0]
linear_acceleration: 
  x: -0.009725651801358716
  y: -0.0033699972811280787
  z: 0.00838062181911962
linear_acceleration_covariance: [0.01, 0.0, 0.0, 0.0, 0.01, 0.0, 0.0, 0.0, 0.01]
---
header: 
  seq: 564
  stamp: 
    secs: 1752028466
    nsecs: 476000000
  frame_id: "imu_link"
orientation: 
  x: 0.007058487679912522
  y: 0.0011673766490033497
  z: -0.0012591514895246999
  w: 0.9999736144123795
orientation_covariance: [-1.0, 0.0, 0.0, 0.0, 0.0, 0.0, 0.0, 0.0, 0.0]
angular_velocity: 
  x: 1.0429915806225455e-299
  y: 6.9520369779118e-310
  z: 4e-323
angular_velocity_covariance: [-1.0, 0.0, 0.0, 0.0, 0.0, 0.0, 0.0, 0.0, 0.0]
linear_acceleration: 
  x: -0.006023066829633351
  y: -0.007587665731709235
  z: 0.00017999339422248287
linear_acceleration_covariance: [0.01, 0.0, 0.0, 0.0, 0.01, 0.0, 0.0, 0.0, 0.01]
---
header: 
  seq: 565
  stamp: 
    secs: 1752028466
    nsecs: 559000000
  frame_id: "imu_link"
orientation: 
  x: 0.007059199935101798
  y: 0.0011682795327877537
  z: -0.0012593609002552336
  w: 0.9999736080663992
orientation_covariance: [-1.0, 0.0, 0.0, 0.0, 0.0, 0.0, 0.0, 0.0, 0.0]
angular_velocity: 
  x: 1.0429915807327535e-299
  y: 6.9520369779118e-310
  z: 4e-323
angular_velocity_covariance: [-1.0, 0.0, 0.0, 0.0, 0.0, 0.0, 0.0, 0.0, 0.0]
linear_acceleration: 
  x: 0.010516527728801066
  y: 0.010198899482147963
  z: -0.0011218390663372696
linear_acceleration_covariance: [0.01, 0.0, 0.0, 0.0, 0.01, 0.0, 0.0, 0.0, 0.01]
---
header: 
  seq: 566
  stamp: 
    secs: 1752028466
    nsecs: 590000000
  frame_id: "imu_link"
orientation: 
  x: 0.00705835964058441
  y: 0.0011673474513028696
  z: -0.0012595703510470207
  w: 0.9999736148227327
orientation_covariance: [-1.0, 0.0, 0.0, 0.0, 0.0, 0.0, 0.0, 0.0, 0.0]
angular_velocity: 
  x: 1.0429915807737334e-299
  y: 6.9520369779118e-310
  z: 4e-323
angular_velocity_covariance: [-1.0, 0.0, 0.0, 0.0, 0.0, 0.0, 0.0, 0.0, 0.0]
linear_acceleration: 
  x: -0.007321781011276148
  y: -0.008725433846861612
  z: 0.0016458438558792287
linear_acceleration_covariance: [0.01, 0.0, 0.0, 0.0, 0.01, 0.0, 0.0, 0.0, 0.01]
---
header: 
  seq: 567
  stamp: 
    secs: 1752028466
    nsecs: 623000000
  frame_id: "imu_link"
orientation: 
  x: 0.007060374755222729
  y: 0.0011693972015672247
  z: -0.0012598413646085227
  w: 0.9999735978605818
orientation_covariance: [-1.0, 0.0, 0.0, 0.0, 0.0, 0.0, 0.0, 0.0, 0.0]
angular_velocity: 
  x: 1.0429915808183463e-299
  y: 6.9520369779118e-310
  z: 4e-323
angular_velocity_covariance: [-1.0, 0.0, 0.0, 0.0, 0.0, 0.0, 0.0, 0.0, 0.0]
linear_acceleration: 
  x: 0.01270259904882987
  y: 0.013363877158074066
  z: -0.008854115341377379
linear_acceleration_covariance: [0.01, 0.0, 0.0, 0.0, 0.01, 0.0, 0.0, 0.0, 0.01]
---
header: 
  seq: 568
  stamp: 
    secs: 1752028466
    nsecs: 657000000
  frame_id: "imu_link"
orientation: 
  x: 0.007059211698534607
  y: 0.0011683204616703422
  z: -0.0012597522355135297
  w: 0.9999736074426162
orientation_covariance: [-1.0, 0.0, 0.0, 0.0, 0.0, 0.0, 0.0, 0.0, 0.0]
angular_velocity: 
  x: 1.0429915808633326e-299
  y: 6.9520369779118e-310
  z: 4e-323
angular_velocity_covariance: [-1.0, 0.0, 0.0, 0.0, 0.0, 0.0, 0.0, 0.0, 0.0]
linear_acceleration: 
  x: -0.012552486994508503
  y: -0.012503763051798879
  z: 0.007753980007808679
linear_acceleration_covariance: [0.01, 0.0, 0.0, 0.0, 0.01, 0.0, 0.0, 0.0, 0.01]
---
header: 
  seq: 569
  stamp: 
    secs: 1752028466
    nsecs: 690000000
  frame_id: "imu_link"
orientation: 
  x: 0.007058887471360302
  y: 0.0011687254443444605
  z: -0.0012598396059828815
  w: 0.9999736091480963
orientation_covariance: [-1.0, 0.0, 0.0, 0.0, 0.0, 0.0, 0.0, 0.0, 0.0]
angular_velocity: 
  x: 1.0429915809063836e-299
  y: 6.9520369779118e-310
  z: 4e-323
angular_velocity_covariance: [-1.0, 0.0, 0.0, 0.0, 0.0, 0.0, 0.0, 0.0, 0.0]
linear_acceleration: 
  x: 0.0006334606665372129
  y: 0.005002619325873709
  z: 0.0015109267304936618
linear_acceleration_covariance: [0.01, 0.0, 0.0, 0.0, 0.01, 0.0, 0.0, 0.0, 0.01]
---
header: 
  seq: 570
  stamp: 
    secs: 1752028466
    nsecs: 724000000
  frame_id: "imu_link"
orientation: 
  x: 0.007059056800680203
  y: 0.001168433512453799
  z: -0.001259990623453924
  w: 0.9999736081036542
orientation_covariance: [-1.0, 0.0, 0.0, 0.0, 0.0, 0.0, 0.0, 0.0, 0.0]
angular_velocity: 
  x: 1.0429915809515397e-299
  y: 6.9520369779118e-310
  z: 4e-323
angular_velocity_covariance: [-1.0, 0.0, 0.0, 0.0, 0.0, 0.0, 0.0, 0.0, 0.0]
linear_acceleration: 
  x: 0.004867814667425994
  y: -0.0025087481610362814
  z: -0.0024628813741494676
linear_acceleration_covariance: [0.01, 0.0, 0.0, 0.0, 0.01, 0.0, 0.0, 0.0, 0.01]
---
header: 
  seq: 571
  stamp: 
    secs: 1752028466
    nsecs: 757000000
  frame_id: "imu_link"
orientation: 
  x: 0.007059056800680203
  y: 0.001168433512453799
  z: -0.001259990623453924
  w: 0.9999736081036542
orientation_covariance: [-1.0, 0.0, 0.0, 0.0, 0.0, 0.0, 0.0, 0.0, 0.0]
angular_velocity: 
  x: 1.042991580995881e-299
  y: 6.9520369779118e-310
  z: 4e-323
angular_velocity_covariance: [-1.0, 0.0, 0.0, 0.0, 0.0, 0.0, 0.0, 0.0, 0.0]
linear_acceleration: 
  x: -0.003030738119594732
  y: 0.0012610873434934502
  z: 0.002507649775376028
linear_acceleration_covariance: [0.01, 0.0, 0.0, 0.0, 0.01, 0.0, 0.0, 0.0, 0.01]
---
header: 
  seq: 572
  stamp: 
    secs: 1752028466
    nsecs: 791000000
  frame_id: "imu_link"
orientation: 
  x: 0.007060335142799333
  y: 0.0011698591655683605
  z: -0.0012604350090527846
  w: 0.999973596851833
orientation_covariance: [-1.0, 0.0, 0.0, 0.0, 0.0, 0.0, 0.0, 0.0, 0.0]
angular_velocity: 
  x: 1.042991581040358e-299
  y: 6.9520369779118e-310
  z: 4e-323
angular_velocity_covariance: [-1.0, 0.0, 0.0, 0.0, 0.0, 0.0, 0.0, 0.0, 0.0]
linear_acceleration: 
  x: 0.007974587875565056
  y: 0.00581801344275796
  z: -0.009925342955928734
linear_acceleration_covariance: [0.01, 0.0, 0.0, 0.0, 0.01, 0.0, 0.0, 0.0, 0.01]
---
header: 
  seq: 573
  stamp: 
    secs: 1752028466
    nsecs: 823000000
  frame_id: "imu_link"
orientation: 
  x: 0.007059159348692923
  y: 0.0011684822917003854
  z: -0.0012603805113242394
  w: 0.9999736068313956
orientation_covariance: [-1.0, 0.0, 0.0, 0.0, 0.0, 0.0, 0.0, 0.0, 0.0]
angular_velocity: 
  x: 1.042991581083443e-299
  y: 6.9520369779118e-310
  z: 4e-323
angular_velocity_covariance: [-1.0, 0.0, 0.0, 0.0, 0.0, 0.0, 0.0, 0.0, 0.0]
linear_acceleration: 
  x: -0.010408643716241726
  y: -0.011627320507889618
  z: 0.008230904238759737
linear_acceleration_covariance: [0.01, 0.0, 0.0, 0.0, 0.01, 0.0, 0.0, 0.0, 0.01]
---
header: 
  seq: 574
  stamp: 
    secs: 1752028466
    nsecs: 857000000
  frame_id: "imu_link"
orientation: 
  x: 0.007059159348692923
  y: 0.0011684822917003854
  z: -0.0012603805113242394
  w: 0.9999736068313956
orientation_covariance: [-1.0, 0.0, 0.0, 0.0, 0.0, 0.0, 0.0, 0.0, 0.0]
angular_velocity: 
  x: 1.04299158112792e-299
  y: 6.9520369779118e-310
  z: 4e-323
angular_velocity_covariance: [-1.0, 0.0, 0.0, 0.0, 0.0, 0.0, 0.0, 0.0, 0.0]
linear_acceleration: 
  x: 0.001688800444918065
  y: 0.00609431211576119
  z: 0.001854283155974015
linear_acceleration_covariance: [0.01, 0.0, 0.0, 0.0, 0.01, 0.0, 0.0, 0.0, 0.01]
---
header: 
  seq: 575
  stamp: 
    secs: 1752028466
    nsecs: 937000000
  frame_id: "imu_link"
orientation: 
  x: 0.007058998658881271
  y: 0.0011681794090669668
  z: -0.0012606295400733128
  w: 0.9999736080057136
orientation_covariance: [-1.0, 0.0, 0.0, 0.0, 0.0, 0.0, 0.0, 0.0, 0.0]
angular_velocity: 
  x: 1.0429915812344272e-299
  y: 6.9520369779118e-310
  z: 4e-323
angular_velocity_covariance: [-1.0, 0.0, 0.0, 0.0, 0.0, 0.0, 0.0, 0.0, 0.0]
linear_acceleration: 
  x: 0.002652517639257968
  y: -0.002373613619609631
  z: -0.002917819410695317
linear_acceleration_covariance: [0.01, 0.0, 0.0, 0.0, 0.01, 0.0, 0.0, 0.0, 0.01]
---
header: 
  seq: 576
  stamp: 
    secs: 1752028466
    nsecs: 969000000
  frame_id: "imu_link"
orientation: 
  x: 0.007058184338607807
  y: 0.0011681679018333013
  z: -0.0012605820692779067
  w: 0.9999736138271059
orientation_covariance: [-1.0, 0.0, 0.0, 0.0, 0.0, 0.0, 0.0, 0.0, 0.0]
angular_velocity: 
  x: 1.0429915812763579e-299
  y: 6.9520369779118e-310
  z: 4e-323
angular_velocity_covariance: [-1.0, 0.0, 0.0, 0.0, 0.0, 0.0, 0.0, 0.0, 0.0]
linear_acceleration: 
  x: -0.00450998213469175
  y: 0.002565304230099969
  z: 0.002212139205382045
linear_acceleration_covariance: [0.01, 0.0, 0.0, 0.0, 0.01, 0.0, 0.0, 0.0, 0.01]
---
header: 
  seq: 577
  stamp: 
    secs: 1752028467
    nsecs:   3000000
  frame_id: "imu_link"
orientation: 
  x: 0.00706020060966065
  y: 0.0011695760019155021
  z: -0.001261080263381524
  w: 0.9999735973193975
orientation_covariance: [-1.0, 0.0, 0.0, 0.0, 0.0, 0.0, 0.0, 0.0, 0.0]
angular_velocity: 
  x: 1.0429915813213102e-299
  y: 6.9520369779118e-310
  z: 4e-323
angular_velocity_covariance: [-1.0, 0.0, 0.0, 0.0, 0.0, 0.0, 0.0, 0.0, 0.0]
linear_acceleration: 
  x: 0.012785395080045121
  y: 0.004693941904188035
  z: -0.008846995965894411
linear_acceleration_covariance: [0.01, 0.0, 0.0, 0.0, 0.01, 0.0, 0.0, 0.0, 0.01]
---
header: 
  seq: 578
  stamp: 
    secs: 1752028467
    nsecs:  36000000
  frame_id: "imu_link"
orientation: 
  x: 0.0070598048074600826
  y: 0.0011693951332078247
  z: -0.0012610852337709714
  w: 0.9999736003190967
orientation_covariance: [-1.0, 0.0, 0.0, 0.0, 0.0, 0.0, 0.0, 0.0, 0.0]
angular_velocity: 
  x: 1.0429915813650064e-299
  y: 6.9520369779118e-310
  z: 4e-323
angular_velocity_covariance: [-1.0, 0.0, 0.0, 0.0, 0.0, 0.0, 0.0, 0.0, 0.0]
linear_acceleration: 
  x: -0.010201669703961955
  y: -0.005555380637882226
  z: 0.00827925390699322
linear_acceleration_covariance: [0.01, 0.0, 0.0, 0.0, 0.01, 0.0, 0.0, 0.0, 0.01]
---
header: 
  seq: 579
  stamp: 
    secs: 1752028467
    nsecs:  70000000
  frame_id: "imu_link"
orientation: 
  x: 0.007058203928136779
  y: 0.0011681518871761453
  z: -0.0012609435718463845
  w: 0.9999736132517626
orientation_covariance: [-1.0, 0.0, 0.0, 0.0, 0.0, 0.0, 0.0, 0.0, 0.0]
angular_velocity: 
  x: 1.0429915814102982e-299
  y: 6.9520369779118e-310
  z: 4e-323
angular_velocity_covariance: [-1.0, 0.0, 0.0, 0.0, 0.0, 0.0, 0.0, 0.0, 0.0]
linear_acceleration: 
  x: -0.005875345061433334
  y: -0.004554755243769254
  z: 0.00025045560809735287
linear_acceleration_covariance: [0.01, 0.0, 0.0, 0.0, 0.01, 0.0, 0.0, 0.0, 0.01]
---
header: 
  seq: 580
  stamp: 
    secs: 1752028467
    nsecs: 103000000
  frame_id: "imu_link"
orientation: 
  x: 0.00705886744931009
  y: 0.0011688554964962858
  z: -0.0012612050470041044
  w: 0.9999736074162111
orientation_covariance: [-1.0, 0.0, 0.0, 0.0, 0.0, 0.0, 0.0, 0.0, 0.0]
angular_velocity: 
  x: 1.0429915814541302e-299
  y: 6.9520369779118e-310
  z: 4e-323
angular_velocity_covariance: [-1.0, 0.0, 0.0, 0.0, 0.0, 0.0, 0.0, 0.0, 0.0]
linear_acceleration: 
  x: 0.010451056017811109
  y: 0.007886415956209777
  z: -0.0011035222671053576
linear_acceleration_covariance: [0.01, 0.0, 0.0, 0.0, 0.01, 0.0, 0.0, 0.0, 0.01]
---
header: 
  seq: 581
  stamp: 
    secs: 1752028467
    nsecs: 136000000
  frame_id: "imu_link"
orientation: 
  x: 0.007057984405149159
  y: 0.0011682558450372704
  z: -0.0012612215716627322
  w: 0.9999736143291805
orientation_covariance: [-1.0, 0.0, 0.0, 0.0, 0.0, 0.0, 0.0, 0.0, 0.0]
angular_velocity: 
  x: 1.0429915814984374e-299
  y: 6.9520369779118e-310
  z: 4e-323
angular_velocity_covariance: [-1.0, 0.0, 0.0, 0.0, 0.0, 0.0, 0.0, 0.0, 0.0]
linear_acceleration: 
  x: -0.007501060474451891
  y: -0.0056998696791244
  z: 0.001443969640623956
linear_acceleration_covariance: [0.01, 0.0, 0.0, 0.0, 0.01, 0.0, 0.0, 0.0, 0.01]
---
header: 
  seq: 582
  stamp: 
    secs: 1752028467
    nsecs: 169000000
  frame_id: "imu_link"
orientation: 
  x: 0.0070600684488897674
  y: 0.001170587219317455
  z: -0.0012616331795107802
  w: 0.999973596371814
orientation_covariance: [-1.0, 0.0, 0.0, 0.0, 0.0, 0.0, 0.0, 0.0, 0.0]
angular_velocity: 
  x: 1.0429915815415904e-299
  y: 6.9520369779118e-310
  z: 4e-323
angular_velocity_covariance: [-1.0, 0.0, 0.0, 0.0, 0.0, 0.0, 0.0, 0.0, 0.0]
linear_acceleration: 
  x: 0.013440249487325102
  y: 0.012843680603861147
  z: -0.008838157719918313
linear_acceleration_covariance: [0.01, 0.0, 0.0, 0.0, 0.01, 0.0, 0.0, 0.0, 0.01]
---
header: 
  seq: 583
  stamp: 
    secs: 1752028467
    nsecs: 203000000
  frame_id: "imu_link"
orientation: 
  x: 0.00705897327755709
  y: 0.0011696212729909183
  z: -0.0012615633092649757
  w: 0.999973605321841
orientation_covariance: [-1.0, 0.0, 0.0, 0.0, 0.0, 0.0, 0.0, 0.0, 0.0]
angular_velocity: 
  x: 1.0429915815867125e-299
  y: 6.9520369779118e-310
  z: 4e-323
angular_velocity_covariance: [-1.0, 0.0, 0.0, 0.0, 0.0, 0.0, 0.0, 0.0, 0.0]
linear_acceleration: 
  x: -0.012512120579539803
  y: -0.013333345744443215
  z: 0.007924532222649158
linear_acceleration_covariance: [0.01, 0.0, 0.0, 0.0, 0.01, 0.0, 0.0, 0.0, 0.01]
---
header: 
  seq: 584
  stamp: 
    secs: 1752028467
    nsecs: 285000000
  frame_id: "imu_link"
orientation: 
  x: 0.00705897327755709
  y: 0.0011696212729909183
  z: -0.0012615633092649757
  w: 0.999973605321841
orientation_covariance: [-1.0, 0.0, 0.0, 0.0, 0.0, 0.0, 0.0, 0.0, 0.0]
angular_velocity: 
  x: 1.0429915816962414e-299
  y: 6.9520369779118e-310
  z: 4e-323
angular_velocity_covariance: [-1.0, 0.0, 0.0, 0.0, 0.0, 0.0, 0.0, 0.0, 0.0]
linear_acceleration: 
  x: 0.0013888574862861228
  y: 0.0015338534563235828
  z: 0.0016148906632980954
linear_acceleration_covariance: [0.01, 0.0, 0.0, 0.0, 0.01, 0.0, 0.0, 0.0, 0.01]
---
header: 
  seq: 585
  stamp: 
    secs: 1752028467
    nsecs: 316000000
  frame_id: "imu_link"
orientation: 
  x: 0.007058806094370407
  y: 0.0011685417742710322
  z: -0.0012619660759587367
  w: 0.999973607255845
orientation_covariance: [-1.0, 0.0, 0.0, 0.0, 0.0, 0.0, 0.0, 0.0, 0.0]
angular_velocity: 
  x: 1.0429915817371195e-299
  y: 6.9520369779118e-310
  z: 4e-323
angular_velocity_covariance: [-1.0, 0.0, 0.0, 0.0, 0.0, 0.0, 0.0, 0.0, 0.0]
linear_acceleration: 
  x: 0.002540915631112825
  y: -0.002952939580654259
  z: -0.0029379633908862093
linear_acceleration_covariance: [0.01, 0.0, 0.0, 0.0, 0.01, 0.0, 0.0, 0.0, 0.01]
---
header: 
  seq: 586
  stamp: 
    secs: 1752028467
    nsecs: 350000000
  frame_id: "imu_link"
orientation: 
  x: 0.007057922610870992
  y: 0.001167941497773385
  z: -0.001261874187732605
  w: 0.9999736143092034
orientation_covariance: [-1.0, 0.0, 0.0, 0.0, 0.0, 0.0, 0.0, 0.0, 0.0]
angular_velocity: 
  x: 1.042991581781291e-299
  y: 6.9520369779118e-310
  z: 4e-323
angular_velocity_covariance: [-1.0, 0.0, 0.0, 0.0, 0.0, 0.0, 0.0, 0.0, 0.0]
linear_acceleration: 
  x: -0.0049365619450164105
  y: 0.0020219070819783016
  z: 0.0019645693704359504
linear_acceleration_covariance: [0.01, 0.0, 0.0, 0.0, 0.01, 0.0, 0.0, 0.0, 0.01]
---
header: 
  seq: 587
  stamp: 
    secs: 1752028467
    nsecs: 381000000
  frame_id: "imu_link"
orientation: 
  x: 0.007059939000988536
  y: 0.0011696210869202592
  z: -0.001262183815833062
  w: 0.999973597721375
orientation_covariance: [-1.0, 0.0, 0.0, 0.0, 0.0, 0.0, 0.0, 0.0, 0.0]
angular_velocity: 
  x: 1.0429915818233574e-299
  y: 6.9520369779118e-310
  z: 4e-323
angular_velocity_covariance: [-1.0, 0.0, 0.0, 0.0, 0.0, 0.0, 0.0, 0.0, 0.0]
linear_acceleration: 
  x: 0.013148865105098537
  y: 0.009535453415316052
  z: -0.00865292274250581
linear_acceleration_covariance: [0.01, 0.0, 0.0, 0.0, 0.01, 0.0, 0.0, 0.0, 0.01]
---
header: 
  seq: 588
  stamp: 
    secs: 1752028467
    nsecs: 415000000
  frame_id: "imu_link"
orientation: 
  x: 0.0070596102176191155
  y: 0.0011696532914514679
  z: -0.0012621832002195227
  w: 0.999973600005681
orientation_covariance: [-1.0, 0.0, 0.0, 0.0, 0.0, 0.0, 0.0, 0.0, 0.0]
angular_velocity: 
  x: 1.0429915818678345e-299
  y: 6.9520369779118e-310
  z: 4e-323
angular_velocity_covariance: [-1.0, 0.0, 0.0, 0.0, 0.0, 0.0, 0.0, 0.0, 0.0]
linear_acceleration: 
  x: -0.009876852033607617
  y: -0.006224095546511589
  z: 0.00838648316948169
linear_acceleration_covariance: [0.01, 0.0, 0.0, 0.0, 0.01, 0.0, 0.0, 0.0, 0.01]
---
header: 
  seq: 589
  stamp: 
    secs: 1752028467
    nsecs: 449000000
  frame_id: "imu_link"
orientation: 
  x: 0.007058067667229527
  y: 0.0011684970571033137
  z: -0.0012622175575338081
  w: 0.999973612202977
orientation_covariance: [-1.0, 0.0, 0.0, 0.0, 0.0, 0.0, 0.0, 0.0, 0.0]
angular_velocity: 
  x: 1.0429915819130245e-299
  y: 6.9520369779118e-310
  z: 4e-323
angular_velocity_covariance: [-1.0, 0.0, 0.0, 0.0, 0.0, 0.0, 0.0, 0.0, 0.0]
linear_acceleration: 
  x: -0.00572188694127575
  y: -0.005486805865464952
  z: 0.0003240470605949448
linear_acceleration_covariance: [0.01, 0.0, 0.0, 0.0, 0.01, 0.0, 0.0, 0.0, 0.01]
---
header: 
  seq: 590
  stamp: 
    secs: 1752028467
    nsecs: 483000000
  frame_id: "imu_link"
orientation: 
  x: 0.007058717660283187
  y: 0.0011683619518200472
  z: -0.0012625685613827109
  w: 0.9999736073296984
orientation_covariance: [-1.0, 0.0, 0.0, 0.0, 0.0, 0.0, 0.0, 0.0, 0.0]
angular_velocity: 
  x: 1.0429915819581806e-299
  y: 6.9520369779118e-310
  z: 4e-323
angular_velocity_covariance: [-1.0, 0.0, 0.0, 0.0, 0.0, 0.0, 0.0, 0.0, 0.0]
linear_acceleration: 
  x: 0.010046490455170311
  y: 0.003405530148808134
  z: -0.0013849785556420639
linear_acceleration_covariance: [0.01, 0.0, 0.0, 0.0, 0.01, 0.0, 0.0, 0.0, 0.01]
---
header: 
  seq: 591
  stamp: 
    secs: 1752028467
    nsecs: 517000000
  frame_id: "imu_link"
orientation: 
  x: 0.007057878276983239
  y: 0.0011682351593126927
  z: -0.001262471060703132
  w: 0.9999736135257075
orientation_covariance: [-1.0, 0.0, 0.0, 0.0, 0.0, 0.0, 0.0, 0.0, 0.0]
angular_velocity: 
  x: 1.042991582003065e-299
  y: 6.9520369779118e-310
  z: 4e-323
angular_velocity_covariance: [-1.0, 0.0, 0.0, 0.0, 0.0, 0.0, 0.0, 0.0, 0.0]
linear_acceleration: 
  x: -0.0073542731487084585
  y: 0.0012830411222202658
  z: 0.0013705493152629494
linear_acceleration_covariance: [0.01, 0.0, 0.0, 0.0, 0.01, 0.0, 0.0, 0.0, 0.01]
---
header: 
  seq: 592
  stamp: 
    secs: 1752028467
    nsecs: 549000000
  frame_id: "imu_link"
orientation: 
  x: 0.007059871384440454
  y: 0.0011697291604834414
  z: -0.0012628094000067828
  w: 0.9999735972825211
orientation_covariance: [-1.0, 0.0, 0.0, 0.0, 0.0, 0.0, 0.0, 0.0, 0.0]
angular_velocity: 
  x: 1.0429915820457766e-299
  y: 6.9520369779118e-310
  z: 4e-323
angular_velocity_covariance: [-1.0, 0.0, 0.0, 0.0, 0.0, 0.0, 0.0, 0.0, 0.0]
linear_acceleration: 
  x: 0.012841028029774186
  y: 0.005936367769995976
  z: -0.00871604677345713
linear_acceleration_covariance: [0.01, 0.0, 0.0, 0.0, 0.01, 0.0, 0.0, 0.0, 0.01]
---
header: 
  seq: 593
  stamp: 
    secs: 1752028467
    nsecs: 582000000
  frame_id: "imu_link"
orientation: 
  x: 0.007059610816617631
  y: 0.0011699473132083256
  z: -0.0012629071998827021
  w: 0.9999735987433902
orientation_covariance: [-1.0, 0.0, 0.0, 0.0, 0.0, 0.0, 0.0, 0.0, 0.0]
angular_velocity: 
  x: 1.0429915820896085e-299
  y: 6.9520369779118e-310
  z: 4e-323
angular_velocity_covariance: [-1.0, 0.0, 0.0, 0.0, 0.0, 0.0, 0.0, 0.0, 0.0]
linear_acceleration: 
  x: -0.009485053473420872
  y: -0.00421389873106734
  z: 0.008551837169341802
linear_acceleration_covariance: [0.01, 0.0, 0.0, 0.0, 0.01, 0.0, 0.0, 0.0, 0.01]
---
header: 
  seq: 594
  stamp: 
    secs: 1752028467
    nsecs: 662000000
  frame_id: "imu_link"
orientation: 
  x: 0.007058071975277862
  y: 0.0011685904960049294
  z: -0.0012628539404486519
  w: 0.9999736112599018
orientation_covariance: [-1.0, 0.0, 0.0, 0.0, 0.0, 0.0, 0.0, 0.0, 0.0]
angular_velocity: 
  x: 1.0429915821961157e-299
  y: 6.9520369779118e-310
  z: 4e-323
angular_velocity_covariance: [-1.0, 0.0, 0.0, 0.0, 0.0, 0.0, 0.0, 0.0, 0.0]
linear_acceleration: 
  x: -0.005826766781503286
  y: -0.007356274165393705
  z: 1.982346085222461e-05
linear_acceleration_covariance: [0.01, 0.0, 0.0, 0.0, 0.01, 0.0, 0.0, 0.0, 0.01]
---
header: 
  seq: 595
  stamp: 
    secs: 1752028467
    nsecs: 696000000
  frame_id: "imu_link"
orientation: 
  x: 0.00705879043785188
  y: 0.0011690208797991714
  z: -0.0012631035312270788
  w: 0.9999736053702648
orientation_covariance: [-1.0, 0.0, 0.0, 0.0, 0.0, 0.0, 0.0, 0.0, 0.0]
angular_velocity: 
  x: 1.0429915822412718e-299
  y: 6.9520369779118e-310
  z: 4e-323
angular_velocity_covariance: [-1.0, 0.0, 0.0, 0.0, 0.0, 0.0, 0.0, 0.0, 0.0]
linear_acceleration: 
  x: 0.00994909673708631
  y: 0.007417912663843533
  z: -0.0013225657624371975
linear_acceleration_covariance: [0.01, 0.0, 0.0, 0.0, 0.01, 0.0, 0.0, 0.0, 0.01]
---
header: 
  seq: 596
  stamp: 
    secs: 1752028467
    nsecs: 730000000
  frame_id: "imu_link"
orientation: 
  x: 0.0070579053239814595
  y: 0.0011683497342119828
  z: -0.0012631084778995738
  w: 0.999973612396002
orientation_covariance: [-1.0, 0.0, 0.0, 0.0, 0.0, 0.0, 0.0, 0.0, 0.0]
angular_velocity: 
  x: 1.0429915822853074e-299
  y: 6.9520369779118e-310
  z: 4e-323
angular_velocity_covariance: [-1.0, 0.0, 0.0, 0.0, 0.0, 0.0, 0.0, 0.0, 0.0]
linear_acceleration: 
  x: -0.007634525194571169
  y: -0.004724022564837184
  z: 0.0016040870022639524
linear_acceleration_covariance: [0.01, 0.0, 0.0, 0.0, 0.01, 0.0, 0.0, 0.0, 0.01]
---
header: 
  seq: 597
  stamp: 
    secs: 1752028467
    nsecs: 762000000
  frame_id: "imu_link"
orientation: 
  x: 0.007059790240790542
  y: 0.0011702843884960077
  z: -0.001263423563990466
  w: 0.9999735964299779
orientation_covariance: [-1.0, 0.0, 0.0, 0.0, 0.0, 0.0, 0.0, 0.0, 0.0]
angular_velocity: 
  x: 1.042991582328698e-299
  y: 6.9520369779118e-310
  z: 4e-323
angular_velocity_covariance: [-1.0, 0.0, 0.0, 0.0, 0.0, 0.0, 0.0, 0.0, 0.0]
linear_acceleration: 
  x: 0.01255501518915667
  y: 0.01151903413988729
  z: -0.008966228098049582
linear_acceleration_covariance: [0.01, 0.0, 0.0, 0.0, 0.01, 0.0, 0.0, 0.0, 0.01]
---
header: 
  seq: 598
  stamp: 
    secs: 1752028467
    nsecs: 796000000
  frame_id: "imu_link"
orientation: 
  x: 0.007058695287802015
  y: 0.0011693103135101423
  z: -0.0012632728448925279
  w: 0.999973605489637
orientation_covariance: [-1.0, 0.0, 0.0, 0.0, 0.0, 0.0, 0.0, 0.0, 0.0]
angular_velocity: 
  x: 1.0429915823729713e-299
  y: 6.9520369779118e-310
  z: 4e-323
angular_velocity_covariance: [-1.0, 0.0, 0.0, 0.0, 0.0, 0.0, 0.0, 0.0, 0.0]
linear_acceleration: 
  x: -0.011935912204416844
  y: -0.012007912984393564
  z: 0.008167749782157434
linear_acceleration_covariance: [0.01, 0.0, 0.0, 0.0, 0.01, 0.0, 0.0, 0.0, 0.01]
---
header: 
  seq: 599
  stamp: 
    secs: 1752028467
    nsecs: 828000000
  frame_id: "imu_link"
orientation: 
  x: 0.007057968463705355
  y: 0.001168526457523218
  z: -0.0012634843194693432
  w: 0.9999736112690464
orientation_covariance: [-1.0, 0.0, 0.0, 0.0, 0.0, 0.0, 0.0, 0.0, 0.0]
angular_velocity: 
  x: 1.0429915824160903e-299
  y: 6.9520369779118e-310
  z: 4e-323
angular_velocity_covariance: [-1.0, 0.0, 0.0, 0.0, 0.0, 0.0, 0.0, 0.0, 0.0]
linear_acceleration: 
  x: -0.0003950312039879251
  y: -0.0009070929685514156
  z: 0.0012105759590973124
linear_acceleration_covariance: [0.01, 0.0, 0.0, 0.0, 0.01, 0.0, 0.0, 0.0, 0.01]
---
header: 
  seq: 600
  stamp: 
    secs: 1752028467
    nsecs: 862000000
  frame_id: "imu_link"
orientation: 
  x: 0.007058699385217339
  y: 0.0011691302391272653
  z: -0.0012637164371664899
  w: 0.9999736051107747
orientation_covariance: [-1.0, 0.0, 0.0, 0.0, 0.0, 0.0, 0.0, 0.0, 0.0]
angular_velocity: 
  x: 1.0429915824612464e-299
  y: 6.9520369779118e-310
  z: 4e-323
angular_velocity_covariance: [-1.0, 0.0, 0.0, 0.0, 0.0, 0.0, 0.0, 0.0, 0.0]
linear_acceleration: 
  x: 0.007486244000543067
  y: 0.007260541147926748
  z: -0.002041741434744705
linear_acceleration_covariance: [0.01, 0.0, 0.0, 0.0, 0.01, 0.0, 0.0, 0.0, 0.01]
---
header: 
  seq: 601
  stamp: 
    secs: 1752028467
    nsecs: 896000000
  frame_id: "imu_link"
orientation: 
  x: 0.007057803422603487
  y: 0.00116819081074568
  z: -0.0012637372681037426
  w: 0.9999736125064477
orientation_covariance: [-1.0, 0.0, 0.0, 0.0, 0.0, 0.0, 0.0, 0.0, 0.0]
angular_velocity: 
  x: 1.0429915825056894e-299
  y: 6.9520369779118e-310
  z: 4e-323
angular_velocity_covariance: [-1.0, 0.0, 0.0, 0.0, 0.0, 0.0, 0.0, 0.0, 0.0]
linear_acceleration: 
  x: -0.007721954011867644
  y: -0.007346991816980753
  z: 0.0015116152070601822
linear_acceleration_covariance: [0.01, 0.0, 0.0, 0.0, 0.01, 0.0, 0.0, 0.0, 0.01]
---
header: 
  seq: 602
  stamp: 
    secs: 1752028467
    nsecs: 929000000
  frame_id: "imu_link"
orientation: 
  x: 0.007059744360004955
  y: 0.0011703646170592452
  z: -0.0012640273633534609
  w: 0.9999735958969413
orientation_covariance: [-1.0, 0.0, 0.0, 0.0, 0.0, 0.0, 0.0, 0.0, 0.0]
angular_velocity: 
  x: 1.0429915825495214e-299
  y: 6.9520369779118e-310
  z: 4e-323
angular_velocity_covariance: [-1.0, 0.0, 0.0, 0.0, 0.0, 0.0, 0.0, 0.0, 0.0]
linear_acceleration: 
  x: 0.012842332355001547
