header: 
  seq: 1
  stamp: 
    secs: 1752028437
    nsecs: 439000000
  frame_id: "imu_link"
orientation: 
  x: 0.006761783229062186
  y: 0.00035659087205020006
  z: -0.001204590370502649
  w: 0.9999763497666095
orientation_covariance: [-1.0, 0.0, 0.0, 0.0, 0.0, 0.0, 0.0, 0.0, 0.0]
angular_velocity: 
  x: 1.0429915421118529e-299
  y: 6.9520369779118e-310
  z: 4e-323
angular_velocity_covariance: [-1.0, 0.0, 0.0, 0.0, 0.0, 0.0, 0.0, 0.0, 0.0]
linear_acceleration: 
  x: -0.00018616665875705165
  y: 0.006442126605210854
  z: 0.0013261241507338771
linear_acceleration_covariance: [0.01, 0.0, 0.0, 0.0, 0.01, 0.0, 0.0, 0.0, 0.01]
---
header: 
  seq: 2
  stamp: 
    secs: 1752028437
    nsecs: 472000000
  frame_id: "imu_link"
orientation: 
  x: 0.006761783229062186
  y: 0.00035659087205020006
  z: -0.001204590370502649
  w: 0.9999763497666095
orientation_covariance: [-1.0, 0.0, 0.0, 0.0, 0.0, 0.0, 0.0, 0.0, 0.0]
angular_velocity: 
  x: 1.0429915421556848e-299
  y: 6.9520369779118e-310
  z: 4e-323
angular_velocity_covariance: [-1.0, 0.0, 0.0, 0.0, 0.0, 0.0, 0.0, 0.0, 0.0]
linear_acceleration: 
  x: -0.003177007330078202
  y: 0.006110513026123144
  z: 0.001900230500465127
linear_acceleration_covariance: [0.01, 0.0, 0.0, 0.0, 0.01, 0.0, 0.0, 0.0, 0.01]
---
header: 
  seq: 3
  stamp: 
    secs: 1752028437
    nsecs: 507000000
  frame_id: "imu_link"
orientation: 
  x: 0.006761245165870432
  y: 0.00035690237703933663
  z: -0.001204828652574618
  w: 0.9999763530066189
orientation_covariance: [-1.0, 0.0, 0.0, 0.0, 0.0, 0.0, 0.0, 0.0, 0.0]
angular_velocity: 
  x: 1.0429915422027083e-299
  y: 6.9520369779118e-310
  z: 4e-323
angular_velocity_covariance: [-1.0, 0.0, 0.0, 0.0, 0.0, 0.0, 0.0, 0.0, 0.0]
linear_acceleration: 
  x: -0.002695724983674846
  y: -0.0017938938379853911
  z: 0.002393390924983205
linear_acceleration_covariance: [0.01, 0.0, 0.0, 0.0, 0.01, 0.0, 0.0, 0.0, 0.01]
---
header: 
  seq: 4
  stamp: 
    secs: 1752028437
    nsecs: 539000000
  frame_id: "imu_link"
orientation: 
  x: 0.006760463029395041
  y: 0.0003581463406472921
  z: -0.0012050474515194417
  w: 0.9999763575862514
orientation_covariance: [-1.0, 0.0, 0.0, 0.0, 0.0, 0.0, 0.0, 0.0, 0.0]
angular_velocity: 
  x: 1.0429915422453519e-299
  y: 6.9520369779118e-310
  z: 4e-323
angular_velocity_covariance: [-1.0, 0.0, 0.0, 0.0, 0.0, 0.0, 0.0, 0.0, 0.0]
linear_acceleration: 
  x: -0.001577974246927341
  y: 0.00695021904202479
  z: -0.0007672852281155712
linear_acceleration_covariance: [0.01, 0.0, 0.0, 0.0, 0.01, 0.0, 0.0, 0.0, 0.01]
---
header: 
  seq: 5
  stamp: 
    secs: 1752028437
    nsecs: 571000000
  frame_id: "imu_link"
orientation: 
  x: 0.006760984859359558
  y: 0.0003561350337790706
  z: -0.0012050680771102185
  w: 0.9999763547517005
orientation_covariance: [-1.0, 0.0, 0.0, 0.0, 0.0, 0.0, 0.0, 0.0, 0.0]
angular_velocity: 
  x: 1.0429915422879616e-299
  y: 6.9520369779118e-310
  z: 4e-323
angular_velocity_covariance: [-1.0, 0.0, 0.0, 0.0, 0.0, 0.0, 0.0, 0.0, 0.0]
linear_acceleration: 
  x: 0.0065456501836262965
  y: -0.017084093688989544
  z: -0.004617460106132501
linear_acceleration_covariance: [0.01, 0.0, 0.0, 0.0, 0.01, 0.0, 0.0, 0.0, 0.01]
---
header: 
  seq: 6
  stamp: 
    secs: 1752028437
    nsecs: 605000000
  frame_id: "imu_link"
orientation: 
  x: 0.006760893316359295
  y: 0.000358350459440854
  z: -0.0012052810213637616
  w: 0.9999763543225275
orientation_covariance: [-1.0, 0.0, 0.0, 0.0, 0.0, 0.0, 0.0, 0.0, 0.0]
angular_velocity: 
  x: 1.0429915423324386e-299
  y: 6.9520369779118e-310
  z: 4e-323
angular_velocity_covariance: [-1.0, 0.0, 0.0, 0.0, 0.0, 0.0, 0.0, 0.0, 0.0]
linear_acceleration: 
  x: -0.002645911839172916
  y: 0.022324327905450893
  z: 0.0035286097538786304
linear_acceleration_covariance: [0.01, 0.0, 0.0, 0.0, 0.01, 0.0, 0.0, 0.0, 0.01]
---
header: 
  seq: 7
  stamp: 
    secs: 1752028437
    nsecs: 638000000
  frame_id: "imu_link"
orientation: 
  x: 0.006761580308243316
  y: 0.00035640469841608
  z: -0.0012052803827766205
  w: 0.9999763503736602
orientation_covariance: [-1.0, 0.0, 0.0, 0.0, 0.0, 0.0, 0.0, 0.0, 0.0]
angular_velocity: 
  x: 1.0429915423768817e-299
  y: 6.9520369779118e-310
  z: 4e-323
angular_velocity_covariance: [-1.0, 0.0, 0.0, 0.0, 0.0, 0.0, 0.0, 0.0, 0.0]
linear_acceleration: 
  x: 0.0035973537082674245
  y: -0.022077048248430473
  z: -0.003731756078395437
linear_acceleration_covariance: [0.01, 0.0, 0.0, 0.0, 0.01, 0.0, 0.0, 0.0, 0.01]
---
header: 
  seq: 8
  stamp: 
    secs: 1752028437
    nsecs: 672000000
  frame_id: "imu_link"
orientation: 
  x: 0.006762193075490397
  y: 0.0003555752589217701
  z: -0.0012054494479205118
  w: 0.9999763463215883
orientation_covariance: [-1.0, 0.0, 0.0, 0.0, 0.0, 0.0, 0.0, 0.0, 0.0]
angular_velocity: 
  x: 1.0429915424212908e-299
  y: 6.9520369779118e-310
  z: 4e-323
angular_velocity_covariance: [-1.0, 0.0, 0.0, 0.0, 0.0, 0.0, 0.0, 0.0, 0.0]
linear_acceleration: 
  x: -0.00019073458861065197
  y: 0.005811651446519041
  z: 0.0015094348453069954
linear_acceleration_covariance: [0.01, 0.0, 0.0, 0.0, 0.01, 0.0, 0.0, 0.0, 0.01]
---
header: 
  seq: 9
  stamp: 
    secs: 1752028437
    nsecs: 756000000
  frame_id: "imu_link"
orientation: 
  x: 0.006762028588479051
  y: 0.00035639739455897734
  z: -0.0012056107385513138
  w: 0.9999763469467728
orientation_covariance: [-1.0, 0.0, 0.0, 0.0, 0.0, 0.0, 0.0, 0.0, 0.0]
angular_velocity: 
  x: 1.0429915425326531e-299
  y: 6.9520369779118e-310
  z: 4e-323
angular_velocity_covariance: [-1.0, 0.0, 0.0, 0.0, 0.0, 0.0, 0.0, 0.0, 0.0]
linear_acceleration: 
  x: -0.003692069307679609
  y: 0.008791617711004378
  z: 0.0018635247625742315
linear_acceleration_covariance: [0.01, 0.0, 0.0, 0.0, 0.01, 0.0, 0.0, 0.0, 0.01]
---
header: 
  seq: 10
  stamp: 
    secs: 1752028437
    nsecs: 788000000
  frame_id: "imu_link"
orientation: 
  x: 0.0067609660258277126
  y: 0.0003566393294803797
  z: -0.0012057241147954434
  w: 0.999976353908504
orientation_covariance: [-1.0, 0.0, 0.0, 0.0, 0.0, 0.0, 0.0, 0.0, 0.0]
angular_velocity: 
  x: 1.0429915425748554e-299
  y: 6.9520369779118e-310
  z: 4e-323
angular_velocity_covariance: [-1.0, 0.0, 0.0, 0.0, 0.0, 0.0, 0.0, 0.0, 0.0]
linear_acceleration: 
  x: -0.005071578108385484
  y: -0.0037279588632749797
  z: 0.003301389473797732
linear_acceleration_covariance: [0.01, 0.0, 0.0, 0.0, 0.01, 0.0, 0.0, 0.0, 0.01]
---
header: 
  seq: 11
  stamp: 
    secs: 1752028437
    nsecs: 821000000
  frame_id: "imu_link"
orientation: 
  x: 0.006760718237345645
  y: 0.00035806078642108857
  z: -0.0012059229190859381
  w: 0.9999763548361039
orientation_covariance: [-1.0, 0.0, 0.0, 0.0, 0.0, 0.0, 0.0, 0.0, 0.0]
angular_velocity: 
  x: 1.0429915426190269e-299
  y: 6.9520369779118e-310
  z: 4e-323
angular_velocity_covariance: [-1.0, 0.0, 0.0, 0.0, 0.0, 0.0, 0.0, 0.0, 0.0]
linear_acceleration: 
  x: 0.004274141350670386
  y: 0.007000912139561432
  z: -0.003281880142171657
linear_acceleration_covariance: [0.01, 0.0, 0.0, 0.0, 0.01, 0.0, 0.0, 0.0, 0.01]
---
header: 
  seq: 12
  stamp: 
    secs: 1752028437
    nsecs: 854000000
  frame_id: "imu_link"
orientation: 
  x: 0.006761362662158466
  y: 0.00035648946712396633
  z: -0.0012059288412409413
  w: 0.9999763510332835
orientation_covariance: [-1.0, 0.0, 0.0, 0.0, 0.0, 0.0, 0.0, 0.0, 0.0]
angular_velocity: 
  x: 1.0429915426635039e-299
  y: 6.9520369779118e-310
  z: 4e-323
angular_velocity_covariance: [-1.0, 0.0, 0.0, 0.0, 0.0, 0.0, 0.0, 0.0, 0.0]
linear_acceleration: 
  x: 0.004806111524708297
  y: -0.01621915731112662
  z: -0.003306952666471723
linear_acceleration_covariance: [0.01, 0.0, 0.0, 0.0, 0.01, 0.0, 0.0, 0.0, 0.01]
---
header: 
  seq: 13
  stamp: 
    secs: 1752028437
    nsecs: 888000000
  frame_id: "imu_link"
orientation: 
  x: 0.00676140651670926
  y: 0.00035749153820785506
  z: -0.001206088786200766
  w: 0.999976350186121
orientation_covariance: [-1.0, 0.0, 0.0, 0.0, 0.0, 0.0, 0.0, 0.0, 0.0]
angular_velocity: 
  x: 1.0429915427079809e-299
  y: 6.9520369779118e-310
  z: 4e-323
angular_velocity_covariance: [-1.0, 0.0, 0.0, 0.0, 0.0, 0.0, 0.0, 0.0, 0.0]
linear_acceleration: 
  x: -0.0034782896978978136
  y: 0.015955008780392785
  z: 0.0036597482771033316
linear_acceleration_covariance: [0.01, 0.0, 0.0, 0.0, 0.01, 0.0, 0.0, 0.0, 0.01]
---
header: 
  seq: 14
  stamp: 
    secs: 1752028437
    nsecs: 921000000
  frame_id: "imu_link"
orientation: 
  x: 0.006762004500817797
  y: 0.0003566038630051229
  z: -0.0012061251751931343
  w: 0.9999763464156927
orientation_covariance: [-1.0, 0.0, 0.0, 0.0, 0.0, 0.0, 0.0, 0.0, 0.0]
angular_velocity: 
  x: 1.0429915427511678e-299
  y: 6.9520369779118e-310
  z: 4e-323
angular_velocity_covariance: [-1.0, 0.0, 0.0, 0.0, 0.0, 0.0, 0.0, 0.0, 0.0]
linear_acceleration: 
  x: 0.002947618808285141
  y: -0.013683548881172247
  z: -0.002545349178729781
linear_acceleration_covariance: [0.01, 0.0, 0.0, 0.0, 0.01, 0.0, 0.0, 0.0, 0.01]
---
header: 
  seq: 15
  stamp: 
    secs: 1752028437
    nsecs: 955000000
  frame_id: "imu_link"
orientation: 
  x: 0.006761618675916743
  y: 0.000358757062893456
  z: -0.0012063905287929846
  w: 0.9999763479343617
orientation_covariance: [-1.0, 0.0, 0.0, 0.0, 0.0, 0.0, 0.0, 0.0, 0.0]
angular_velocity: 
  x: 1.0429915427964936e-299
  y: 6.9520369779118e-310
  z: 4e-323
angular_velocity_covariance: [-1.0, 0.0, 0.0, 0.0, 0.0, 0.0, 0.0, 0.0, 0.0]
linear_acceleration: 
  x: -0.004741381041693348
  y: 0.017845794989694554
  z: 0.002933004965509699
linear_acceleration_covariance: [0.01, 0.0, 0.0, 0.0, 0.01, 0.0, 0.0, 0.0, 0.01]
---
header: 
  seq: 16
  stamp: 
    secs: 1752028437
    nsecs: 989000000
  frame_id: "imu_link"
orientation: 
  x: 0.0067611874981245495
  y: 0.0003576652554749817
  z: -0.0012065241760980266
  w: 0.9999763510796607
orientation_covariance: [-1.0, 0.0, 0.0, 0.0, 0.0, 0.0, 0.0, 0.0, 0.0]
angular_velocity: 
  x: 1.0429915428418873e-299
  y: 6.9520369779118e-310
  z: 4e-323
angular_velocity_covariance: [-1.0, 0.0, 0.0, 0.0, 0.0, 0.0, 0.0, 0.0, 0.0]
linear_acceleration: 
  x: -0.0002683059986765585
  y: -0.018182115111034573
  z: 0.000992009948436778
linear_acceleration_covariance: [0.01, 0.0, 0.0, 0.0, 0.01, 0.0, 0.0, 0.0, 0.01]
---
header: 
  seq: 17
  stamp: 
    secs: 1752028438
    nsecs:  21000000
  frame_id: "imu_link"
orientation: 
  x: 0.006760920199036517
  y: 0.00035733588421330036
  z: -0.0012066336694358814
  w: 0.9999763528725644
orientation_covariance: [-1.0, 0.0, 0.0, 0.0, 0.0, 0.0, 0.0, 0.0, 0.0]
angular_velocity: 
  x: 1.0429915428839538e-299
  y: 6.9520369779118e-310
  z: 4e-323
angular_velocity_covariance: [-1.0, 0.0, 0.0, 0.0, 0.0, 0.0, 0.0, 0.0, 0.0]
linear_acceleration: 
  x: 0.00010168218602913447
  y: 0.004779791672457249
  z: -0.0013902920691813603
linear_acceleration_covariance: [0.01, 0.0, 0.0, 0.0, 0.01, 0.0, 0.0, 0.0, 0.01]
---
header: 
  seq: 18
  stamp: 
    secs: 1752028438
    nsecs: 106000000
  frame_id: "imu_link"
orientation: 
  x: 0.006760787270198832
  y: 0.0003582217017631954
  z: -0.0012068055808791777
  w: 0.9999763532469103
orientation_covariance: [-1.0, 0.0, 0.0, 0.0, 0.0, 0.0, 0.0, 0.0, 0.0]
angular_velocity: 
  x: 1.0429915429966402e-299
  y: 6.9520369779118e-310
  z: 4e-323
angular_velocity_covariance: [-1.0, 0.0, 0.0, 0.0, 0.0, 0.0, 0.0, 0.0, 0.0]
linear_acceleration: 
  x: 0.0014076835255610902
  y: 0.00667004549350696
  z: -0.0006790938092989566
linear_acceleration_covariance: [0.01, 0.0, 0.0, 0.0, 0.01, 0.0, 0.0, 0.0, 0.01]
---
header: 
  seq: 19
  stamp: 
    secs: 1752028438
    nsecs: 137000000
  frame_id: "imu_link"
orientation: 
  x: 0.006761405475645942
  y: 0.00035722929727066726
  z: -0.0012068653238235256
  w: 0.9999763493499798
orientation_covariance: [-1.0, 0.0, 0.0, 0.0, 0.0, 0.0, 0.0, 0.0, 0.0]
angular_velocity: 
  x: 1.0429915430379598e-299
  y: 6.9520369779118e-310
  z: 4e-323
angular_velocity_covariance: [-1.0, 0.0, 0.0, 0.0, 0.0, 0.0, 0.0, 0.0, 0.0]
linear_acceleration: 
  x: 0.003574447077937613
  y: -0.009820880525720393
  z: -0.0023672536490092
linear_acceleration_covariance: [0.01, 0.0, 0.0, 0.0, 0.01, 0.0, 0.0, 0.0, 0.01]
---
header: 
  seq: 20
  stamp: 
    secs: 1752028438
    nsecs: 170000000
  frame_id: "imu_link"
orientation: 
  x: 0.00676139281974273
  y: 0.0003581974887522935
  z: -0.001207035640246602
  w: 0.9999763488836422
orientation_covariance: [-1.0, 0.0, 0.0, 0.0, 0.0, 0.0, 0.0, 0.0, 0.0]
angular_velocity: 
  x: 1.042991543081622e-299
  y: 6.9520369779118e-310
  z: 4e-323
angular_velocity_covariance: [-1.0, 0.0, 0.0, 0.0, 0.0, 0.0, 0.0, 0.0, 0.0]
linear_acceleration: 
  x: -0.0027706858131629295
  y: 0.010072148751299215
  z: 0.0025511701857581096
linear_acceleration_covariance: [0.01, 0.0, 0.0, 0.0, 0.01, 0.0, 0.0, 0.0, 0.01]
---
header: 
  seq: 21
  stamp: 
    secs: 1752028438
    nsecs: 203000000
  frame_id: "imu_link"
orientation: 
  x: 0.006762027491192678
  y: 0.0003560878954733119
  z: -0.0012070470070979927
  w: 0.9999763453317991
orientation_covariance: [-1.0, 0.0, 0.0, 0.0, 0.0, 0.0, 0.0, 0.0, 0.0]
angular_velocity: 
  x: 1.0429915431254199e-299
  y: 6.9520369779118e-310
  z: 4e-323
angular_velocity_covariance: [-1.0, 0.0, 0.0, 0.0, 0.0, 0.0, 0.0, 0.0, 0.0]
linear_acceleration: 
  x: 0.002862742204454134
  y: -0.016108538560619244
  z: -0.0030089703904327358
linear_acceleration_covariance: [0.01, 0.0, 0.0, 0.0, 0.01, 0.0, 0.0, 0.0, 0.01]
---
header: 
  seq: 22
  stamp: 
    secs: 1752028438
    nsecs: 236000000
  frame_id: "imu_link"
orientation: 
  x: 0.006761755203600067
  y: 0.0003582948098265207
  z: -0.0012072540283553724
  w: 0.9999763461348008
orientation_covariance: [-1.0, 0.0, 0.0, 0.0, 0.0, 0.0, 0.0, 0.0, 0.0]
angular_velocity: 
  x: 1.042991543169897e-299
  y: 6.9520369779118e-310
  z: 4e-323
angular_velocity_covariance: [-1.0, 0.0, 0.0, 0.0, 0.0, 0.0, 0.0, 0.0, 0.0]
linear_acceleration: 
  x: -0.00426003970786771
  y: 0.02281597147408841
  z: 0.00424336551448562
linear_acceleration_covariance: [0.01, 0.0, 0.0, 0.0, 0.01, 0.0, 0.0, 0.0, 0.01]
---
header: 
  seq: 23
  stamp: 
    secs: 1752028438
    nsecs: 269000000
  frame_id: "imu_link"
orientation: 
  x: 0.0067612169215517165
  y: 0.0003578525712706341
  z: -0.0012073881826547156
  w: 0.9999763497708599
orientation_covariance: [-1.0, 0.0, 0.0, 0.0, 0.0, 0.0, 0.0, 0.0, 0.0]
angular_velocity: 
  x: 1.0429915432126085e-299
  y: 6.9520369779118e-310
  z: 4e-323
angular_velocity_covariance: [-1.0, 0.0, 0.0, 0.0, 0.0, 0.0, 0.0, 0.0, 0.0]
linear_acceleration: 
  x: -0.0014253552535786595
  y: -0.015210610426745357
  z: 0.002152407665952724
linear_acceleration_covariance: [0.01, 0.0, 0.0, 0.0, 0.01, 0.0, 0.0, 0.0, 0.01]
---
header: 
  seq: 24
  stamp: 
    secs: 1752028438
    nsecs: 303000000
  frame_id: "imu_link"
orientation: 
  x: 0.006760054790995707
  y: 0.0003605332863248215
  z: -0.0012076093875779065
  w: 0.9999763563977598
orientation_covariance: [-1.0, 0.0, 0.0, 0.0, 0.0, 0.0, 0.0, 0.0, 0.0]
angular_velocity: 
  x: 1.0429915432584436e-299
  y: 6.9520369779118e-310
  z: 4e-323
angular_velocity_covariance: [-1.0, 0.0, 0.0, 0.0, 0.0, 0.0, 0.0, 0.0, 0.0]
linear_acceleration: 
  x: -0.0037734035012917835
  y: 0.01788486078848302
  z: -0.0004985700408399693
linear_acceleration_covariance: [0.01, 0.0, 0.0, 0.0, 0.01, 0.0, 0.0, 0.0, 0.01]
---
header: 
  seq: 25
  stamp: 
    secs: 1752028438
    nsecs: 336000000
  frame_id: "imu_link"
orientation: 
  x: 0.0067606299814190534
  y: 0.0003585782082464464
  z: -0.0012076203985995496
  w: 0.9999763531988624
orientation_covariance: [-1.0, 0.0, 0.0, 0.0, 0.0, 0.0, 0.0, 0.0, 0.0]
angular_velocity: 
  x: 1.0429915433025811e-299
  y: 6.9520369779118e-310
  z: 4e-323
angular_velocity_covariance: [-1.0, 0.0, 0.0, 0.0, 0.0, 0.0, 0.0, 0.0, 0.0]
linear_acceleration: 
  x: 0.008941551389948002
  y: -0.024648260651533662
  z: -0.0060951144488297975
linear_acceleration_covariance: [0.01, 0.0, 0.0, 0.0, 0.01, 0.0, 0.0, 0.0, 0.01]
---
header: 
  seq: 26
  stamp: 
    secs: 1752028438
    nsecs: 369000000
  frame_id: "imu_link"
orientation: 
  x: 0.006761294812200924
  y: 0.0003576314784316806
  z: -0.0012077956117745672
  w: 0.9999763488312852
orientation_covariance: [-1.0, 0.0, 0.0, 0.0, 0.0, 0.0, 0.0, 0.0, 0.0]
angular_velocity: 
  x: 1.0429915433458359e-299
  y: 6.9520369779118e-310
  z: 4e-323
angular_velocity_covariance: [-1.0, 0.0, 0.0, 0.0, 0.0, 0.0, 0.0, 0.0, 0.0]
linear_acceleration: 
  x: 0.0008433487738853203
  y: 0.0051767452526431884
  z: 0.0008754258633380943
linear_acceleration_covariance: [0.01, 0.0, 0.0, 0.0, 0.01, 0.0, 0.0, 0.0, 0.01]
---
header: 
  seq: 27
  stamp: 
    secs: 1752028438
    nsecs: 403000000
  frame_id: "imu_link"
orientation: 
  x: 0.006761294812200924
  y: 0.0003576314784316806
  z: -0.0012077956117745672
  w: 0.9999763488312852
orientation_covariance: [-1.0, 0.0, 0.0, 0.0, 0.0, 0.0, 0.0, 0.0, 0.0]
angular_velocity: 
  x: 1.0429915433903469e-299
  y: 6.9520369779118e-310
  z: 4e-323
angular_velocity_covariance: [-1.0, 0.0, 0.0, 0.0, 0.0, 0.0, 0.0, 0.0, 0.0]
linear_acceleration: 
  x: -0.00315007864704761
  y: 0.006193836248755178
  z: 0.0020818165549151666
linear_acceleration_covariance: [0.01, 0.0, 0.0, 0.0, 0.01, 0.0, 0.0, 0.0, 0.01]
---
header: 
  seq: 28
  stamp: 
    secs: 1752028438
    nsecs: 483000000
  frame_id: "imu_link"
orientation: 
  x: 0.006761739434509171
  y: 0.00035738868680390584
  z: -0.0012079991156000941
  w: 0.9999763456658778
orientation_covariance: [-1.0, 0.0, 0.0, 0.0, 0.0, 0.0, 0.0, 0.0, 0.0]
angular_velocity: 
  x: 1.0429915434967862e-299
  y: 6.9520369779118e-310
  z: 4e-323
angular_velocity_covariance: [-1.0, 0.0, 0.0, 0.0, 0.0, 0.0, 0.0, 0.0, 0.0]
linear_acceleration: 
  x: 0.0018691147899776782
  y: -0.003351081736476781
  z: -0.0018603767389449215
linear_acceleration_covariance: [0.01, 0.0, 0.0, 0.0, 0.01, 0.0, 0.0, 0.0, 0.01]
---
header: 
  seq: 29
  stamp: 
    secs: 1752028438
    nsecs: 516000000
  frame_id: "imu_link"
orientation: 
  x: 0.00676166707357615
  y: 0.00035825786389862035
  z: -0.0012081757096942128
  w: 0.9999763456308072
orientation_covariance: [-1.0, 0.0, 0.0, 0.0, 0.0, 0.0, 0.0, 0.0, 0.0]
angular_velocity: 
  x: 1.0429915435407879e-299
  y: 6.9520369779118e-310
  z: 4e-323
angular_velocity_covariance: [-1.0, 0.0, 0.0, 0.0, 0.0, 0.0, 0.0, 0.0, 0.0]
linear_acceleration: 
  x: -0.0022423588065184174
  y: 0.006724099290035211
  z: 0.002148299894770628
linear_acceleration_covariance: [0.01, 0.0, 0.0, 0.0, 0.01, 0.0, 0.0, 0.0, 0.01]
---
header: 
  seq: 30
  stamp: 
    secs: 1752028438
    nsecs: 549000000
  frame_id: "imu_link"
orientation: 
  x: 0.006761136748930645
  y: 0.0003574541531709832
  z: -0.0012083139659815412
  w: 0.999976349337198
orientation_covariance: [-1.0, 0.0, 0.0, 0.0, 0.0, 0.0, 0.0, 0.0, 0.0]
angular_velocity: 
  x: 1.0429915435847556e-299
  y: 6.9520369779118e-310
  z: 4e-323
angular_velocity_covariance: [-1.0, 0.0, 0.0, 0.0, 0.0, 0.0, 0.0, 0.0, 0.0]
linear_acceleration: 
  x: -0.0023359841758375586
  y: -0.0098335587071368
  z: 0.0031659573488773966
linear_acceleration_covariance: [0.01, 0.0, 0.0, 0.0, 0.01, 0.0, 0.0, 0.0, 0.01]
---
header: 
  seq: 31
  stamp: 
    secs: 1752028438
    nsecs: 583000000
  frame_id: "imu_link"
orientation: 
  x: 0.006760032448833863
  y: 0.00035985443409455886
  z: -0.0012084987760157479
  w: 0.9999763557188668
orientation_covariance: [-1.0, 0.0, 0.0, 0.0, 0.0, 0.0, 0.0, 0.0, 0.0]
angular_velocity: 
  x: 1.0429915436299117e-299
  y: 6.9520369779118e-310
  z: 4e-323
angular_velocity_covariance: [-1.0, 0.0, 0.0, 0.0, 0.0, 0.0, 0.0, 0.0, 0.0]
linear_acceleration: 
  x: -0.0036387276699294886
  y: 0.018338368862532702
  z: -0.0007444681992316233
linear_acceleration_covariance: [0.01, 0.0, 0.0, 0.0, 0.01, 0.0, 0.0, 0.0, 0.01]
---
header: 
  seq: 32
  stamp: 
    secs: 1752028438
    nsecs: 616000000
  frame_id: "imu_link"
orientation: 
  x: 0.00676057103755776
  y: 0.00035791693751682807
  z: -0.0012085058373436175
  w: 0.9999763527645805
orientation_covariance: [-1.0, 0.0, 0.0, 0.0, 0.0, 0.0, 0.0, 0.0, 0.0]
angular_velocity: 
  x: 1.0429915436730986e-299
  y: 6.9520369779118e-310
  z: 4e-323
angular_velocity_covariance: [-1.0, 0.0, 0.0, 0.0, 0.0, 0.0, 0.0, 0.0, 0.0]
linear_acceleration: 
  x: 0.008458065764018599
  y: -0.023110408984541957
  z: -0.005547819561945293
linear_acceleration_covariance: [0.01, 0.0, 0.0, 0.0, 0.01, 0.0, 0.0, 0.0, 0.01]
---
header: 
  seq: 33
  stamp: 
    secs: 1752028438
    nsecs: 650000000
  frame_id: "imu_link"
orientation: 
  x: 0.006760373419653331
  y: 0.0003603865990842728
  z: -0.00120876228245416
  w: 0.9999763529036426
orientation_covariance: [-1.0, 0.0, 0.0, 0.0, 0.0, 0.0, 0.0, 0.0, 0.0]
angular_velocity: 
  x: 1.042991543718017e-299
  y: 6.9520369779118e-310
  z: 4e-323
angular_velocity_covariance: [-1.0, 0.0, 0.0, 0.0, 0.0, 0.0, 0.0, 0.0, 0.0]
linear_acceleration: 
  x: -0.003180303968755419
  y: 0.023204879887187797
  z: 0.004074381778200901
linear_acceleration_covariance: [0.01, 0.0, 0.0, 0.0, 0.01, 0.0, 0.0, 0.0, 0.01]
---
header: 
  seq: 34
  stamp: 
    secs: 1752028438
    nsecs: 683000000
  frame_id: "imu_link"
orientation: 
  x: 0.006761071566107812
  y: 0.0003582643184809057
  z: -0.001208767010166438
  w: 0.9999763489404492
orientation_covariance: [-1.0, 0.0, 0.0, 0.0, 0.0, 0.0, 0.0, 0.0, 0.0]
angular_velocity: 
  x: 1.0429915437618829e-299
  y: 6.9520369779118e-310
  z: 4e-323
angular_velocity_covariance: [-1.0, 0.0, 0.0, 0.0, 0.0, 0.0, 0.0, 0.0, 0.0]
linear_acceleration: 
  x: 0.004204651805210777
  y: -0.024271077484585346
  z: -0.004248291391381493
linear_acceleration_covariance: [0.01, 0.0, 0.0, 0.0, 0.01, 0.0, 0.0, 0.0, 0.01]
---
header: 
  seq: 35
  stamp: 
    secs: 1752028438
    nsecs: 716000000
  frame_id: "imu_link"
orientation: 
  x: 0.006761743146279454
  y: 0.0003570073104563201
  z: -0.0012089277872301557
  w: 0.999976344654717
orientation_covariance: [-1.0, 0.0, 0.0, 0.0, 0.0, 0.0, 0.0, 0.0, 0.0]
angular_velocity: 
  x: 1.0429915438057148e-299
  y: 6.9520369779118e-310
  z: 4e-323
angular_velocity_covariance: [-1.0, 0.0, 0.0, 0.0, 0.0, 0.0, 0.0, 0.0, 0.0]
linear_acceleration: 
  x: 0.00022894101064649232
  y: 0.004388877402562744
  z: 0.0009391251400611826
linear_acceleration_covariance: [0.01, 0.0, 0.0, 0.0, 0.01, 0.0, 0.0, 0.0, 0.01]
---
header: 
  seq: 36
  stamp: 
    secs: 1752028438
    nsecs: 749000000
  frame_id: "imu_link"
orientation: 
  x: 0.006761514625262122
  y: 0.00035780044859193305
  z: -0.0012090861444052092
  w: 0.9999763457249912
orientation_covariance: [-1.0, 0.0, 0.0, 0.0, 0.0, 0.0, 0.0, 0.0, 0.0]
angular_velocity: 
  x: 1.0429915438501918e-299
  y: 6.9520369779118e-310
  z: 4e-323
angular_velocity_covariance: [-1.0, 0.0, 0.0, 0.0, 0.0, 0.0, 0.0, 0.0, 0.0]
linear_acceleration: 
  x: -0.0045568227619413575
  y: 0.01099134541802802
  z: 0.0026487657777231927
linear_acceleration_covariance: [0.01, 0.0, 0.0, 0.0, 0.01, 0.0, 0.0, 0.0, 0.01]
---
header: 
  seq: 37
  stamp: 
    secs: 1752028438
    nsecs: 838000000
  frame_id: "imu_link"
orientation: 
  x: 0.0067604228555433795
  y: 0.00035776411227914106
  z: -0.0012091929810748245
  w: 0.9999763529904038
orientation_covariance: [-1.0, 0.0, 0.0, 0.0, 0.0, 0.0, 0.0, 0.0, 0.0]
angular_velocity: 
  x: 1.0429915439674958e-299
  y: 6.9520369779118e-310
  z: 4e-323
angular_velocity_covariance: [-1.0, 0.0, 0.0, 0.0, 0.0, 0.0, 0.0, 0.0, 0.0]
linear_acceleration: 
  x: -0.004934346724848775
  y: -0.005041440929263119
  z: 0.0030723288598512354
linear_acceleration_covariance: [0.01, 0.0, 0.0, 0.0, 0.01, 0.0, 0.0, 0.0, 0.01]
---
header: 
  seq: 38
  stamp: 
    secs: 1752028438
    nsecs: 869000000
  frame_id: "imu_link"
orientation: 
  x: 0.006760033999579978
  y: 0.00035906358257578613
  z: -0.0012094032999597289
  w: 0.9999763548991175
orientation_covariance: [-1.0, 0.0, 0.0, 0.0, 0.0, 0.0, 0.0, 0.0, 0.0]
angular_velocity: 
  x: 1.0429915440095962e-299
  y: 6.9520369779118e-310
  z: 4e-323
angular_velocity_covariance: [-1.0, 0.0, 0.0, 0.0, 0.0, 0.0, 0.0, 0.0, 0.0]
linear_acceleration: 
  x: 0.003826350900242967
  y: 0.007807473134264242
  z: -0.0029799848262694758
linear_acceleration_covariance: [0.01, 0.0, 0.0, 0.0, 0.01, 0.0, 0.0, 0.0, 0.01]
---
header: 
  seq: 39
  stamp: 
    secs: 1752028438
    nsecs: 901000000
  frame_id: "imu_link"
orientation: 
  x: 0.006760611063086957
  y: 0.00035746838820649473
  z: -0.0012094138220942123
  w: 0.9999763515566815
orientation_covariance: [-1.0, 0.0, 0.0, 0.0, 0.0, 0.0, 0.0, 0.0, 0.0]
angular_velocity: 
  x: 1.04299154405207e-299
  y: 6.9520369779118e-310
  z: 4e-323
angular_velocity_covariance: [-1.0, 0.0, 0.0, 0.0, 0.0, 0.0, 0.0, 0.0, 0.0]
linear_acceleration: 
  x: 0.004838651087614618
  y: -0.015502988931834088
  z: -0.0024707229789914446
linear_acceleration_covariance: [0.01, 0.0, 0.0, 0.0, 0.01, 0.0, 0.0, 0.0, 0.01]
---
header: 
  seq: 40
  stamp: 
    secs: 1752028438
    nsecs: 937000000
  frame_id: "imu_link"
orientation: 
  x: 0.006760534219896313
  y: 0.0003585022428322374
  z: -0.0012095951149815954
  w: 0.9999763514868046
orientation_covariance: [-1.0, 0.0, 0.0, 0.0, 0.0, 0.0, 0.0, 0.0, 0.0]
angular_velocity: 
  x: 1.042991544098754e-299
  y: 6.9520369779118e-310
  z: 4e-323
angular_velocity_covariance: [-1.0, 0.0, 0.0, 0.0, 0.0, 0.0, 0.0, 0.0, 0.0]
linear_acceleration: 
  x: -0.0029741858564929845
  y: 0.01565559451312116
  z: 0.0017088258147454217
linear_acceleration_covariance: [0.01, 0.0, 0.0, 0.0, 0.01, 0.0, 0.0, 0.0, 0.01]
---
header: 
  seq: 41
  stamp: 
    secs: 1752028438
    nsecs: 968000000
  frame_id: "imu_link"
orientation: 
  x: 0.0067611692643063685
  y: 0.0003573708244727915
  z: -0.001209643223825698
  w: 0.9999763475400526
orientation_covariance: [-1.0, 0.0, 0.0, 0.0, 0.0, 0.0, 0.0, 0.0, 0.0]
angular_velocity: 
  x: 1.0429915441406167e-299
  y: 6.9520369779118e-310
  z: 4e-323
angular_velocity_covariance: [-1.0, 0.0, 0.0, 0.0, 0.0, 0.0, 0.0, 0.0, 0.0]
linear_acceleration: 
  x: 0.0033138047248754887
  y: -0.01456911818226749
  z: -0.0018838568012397954
linear_acceleration_covariance: [0.01, 0.0, 0.0, 0.0, 0.01, 0.0, 0.0, 0.0, 0.01]
---
header: 
  seq: 42
  stamp: 
    secs: 1752028439
    nsecs:   2000000
  frame_id: "imu_link"
orientation: 
  x: 0.006761059116924877
  y: 0.00035831078865689064
  z: -0.0012098205275892931
  w: 0.9999763477339288
orientation_covariance: [-1.0, 0.0, 0.0, 0.0, 0.0, 0.0, 0.0, 0.0, 0.0]
angular_velocity: 
  x: 1.0429915441855011e-299
  y: 6.9520369779118e-310
  z: 4e-323
angular_velocity_covariance: [-1.0, 0.0, 0.0, 0.0, 0.0, 0.0, 0.0, 0.0, 0.0]
linear_acceleration: 
  x: -0.0037265399631139476
  y: 0.013974244472371559
  z: 0.0025199338050455136
linear_acceleration_covariance: [0.01, 0.0, 0.0, 0.0, 0.01, 0.0, 0.0, 0.0, 0.01]
---
header: 
  seq: 43
  stamp: 
    secs: 1752028439
    nsecs:  36000000
  frame_id: "imu_link"
orientation: 
  x: 0.006760594353272704
  y: 0.00035761051119909153
  z: -0.0012100125016299645
  w: 0.9999763508945892
orientation_covariance: [-1.0, 0.0, 0.0, 0.0, 0.0, 0.0, 0.0, 0.0, 0.0]
angular_velocity: 
  x: 1.0429915442299782e-299
  y: 6.9520369779118e-310
  z: 4e-323
angular_velocity_covariance: [-1.0, 0.0, 0.0, 0.0, 0.0, 0.0, 0.0, 0.0, 0.0]
linear_acceleration: 
  x: -0.001361167844413577
  y: -0.012499365644578741
  z: 0.001130491340676053
linear_acceleration_covariance: [0.01, 0.0, 0.0, 0.0, 0.01, 0.0, 0.0, 0.0, 0.01]
---
header: 
  seq: 44
  stamp: 
    secs: 1752028439
    nsecs:  69000000
  frame_id: "imu_link"
orientation: 
  x: 0.00676035952063742
  y: 0.00035725577007553216
  z: -0.0012101085064834965
  w: 0.9999763524928323
orientation_covariance: [-1.0, 0.0, 0.0, 0.0, 0.0, 0.0, 0.0, 0.0, 0.0]
angular_velocity: 
  x: 1.0429915442741836e-299
  y: 6.9520369779118e-310
  z: 4e-323
angular_velocity_covariance: [-1.0, 0.0, 0.0, 0.0, 0.0, 0.0, 0.0, 0.0, 0.0]
linear_acceleration: 
  x: 0.00018926437531409618
  y: 0.003919364115571503
  z: -0.0012143484551460858
linear_acceleration_covariance: [0.01, 0.0, 0.0, 0.0, 0.01, 0.0, 0.0, 0.0, 0.01]
---
header: 
  seq: 45
  stamp: 
    secs: 1752028439
    nsecs: 103000000
  frame_id: "imu_link"
orientation: 
  x: 0.006760244096586662
  y: 0.00035810071141600985
  z: -0.001210272876568956
  w: 0.999976352772004
orientation_covariance: [-1.0, 0.0, 0.0, 0.0, 0.0, 0.0, 0.0, 0.0, 0.0]
angular_velocity: 
  x: 1.0429915443193057e-299
  y: 6.9520369779118e-310
  z: 4e-323
angular_velocity_covariance: [-1.0, 0.0, 0.0, 0.0, 0.0, 0.0, 0.0, 0.0, 0.0]
linear_acceleration: 
  x: 0.0012443722306146546
  y: 0.006644114676031877
  z: -0.00041890971243855186
linear_acceleration_covariance: [0.01, 0.0, 0.0, 0.0, 0.01, 0.0, 0.0, 0.0, 0.01]
---
header: 
  seq: 46
  stamp: 
    secs: 1752028439
    nsecs: 135000000
  frame_id: "imu_link"
orientation: 
  x: 0.0067608757384560805
  y: 0.0003571195202760062
  z: -0.001210321918809176
  w: 0.9999763487931853
orientation_covariance: [-1.0, 0.0, 0.0, 0.0, 0.0, 0.0, 0.0, 0.0, 0.0]
angular_velocity: 
  x: 1.0429915443624586e-299
  y: 6.9520369779118e-310
  z: 4e-323
angular_velocity_covariance: [-1.0, 0.0, 0.0, 0.0, 0.0, 0.0, 0.0, 0.0, 0.0]
linear_acceleration: 
  x: 0.003494078346044975
  y: -0.00956047801643953
  z: -0.0023447318485384843
linear_acceleration_covariance: [0.01, 0.0, 0.0, 0.0, 0.01, 0.0, 0.0, 0.0, 0.01]
---
header: 
  seq: 47
  stamp: 
    secs: 1752028439
    nsecs: 214000000
  frame_id: "imu_link"
orientation: 
  x: 0.006760874837371067
  y: 0.0003580100918263166
  z: -0.0012104902779644525
  w: 0.9999763482770452
orientation_covariance: [-1.0, 0.0, 0.0, 0.0, 0.0, 0.0, 0.0, 0.0, 0.0]
angular_velocity: 
  x: 1.0429915444672343e-299
  y: 6.9520369779118e-310
  z: 4e-323
angular_velocity_covariance: [-1.0, 0.0, 0.0, 0.0, 0.0, 0.0, 0.0, 0.0, 0.0]
linear_acceleration: 
  x: -0.0026978012821757334
  y: 0.009614283180649346
  z: 0.002411967756448657
linear_acceleration_covariance: [0.01, 0.0, 0.0, 0.0, 0.01, 0.0, 0.0, 0.0, 0.01]
---
header: 
  seq: 48
  stamp: 
    secs: 1752028439
    nsecs: 248000000
  frame_id: "imu_link"
orientation: 
  x: 0.006761493341033379
  y: 0.00035584016520306993
  z: -0.0012105044989013255
  w: 0.9999763448524339
orientation_covariance: [-1.0, 0.0, 0.0, 0.0, 0.0, 0.0, 0.0, 0.0, 0.0]
angular_velocity: 
  x: 1.0429915445114057e-299
  y: 6.9520369779118e-310
  z: 4e-323
angular_velocity_covariance: [-1.0, 0.0, 0.0, 0.0, 0.0, 0.0, 0.0, 0.0, 0.0]
linear_acceleration: 
  x: 0.002769733993640192
  y: -0.016038226586058812
  z: -0.0028874218561010566
linear_acceleration_covariance: [0.01, 0.0, 0.0, 0.0, 0.01, 0.0, 0.0, 0.0, 0.01]
---
header: 
  seq: 49
  stamp: 
    secs: 1752028439
    nsecs: 281000000
  frame_id: "imu_link"
orientation: 
  x: 0.006761319965574558
  y: 0.0003578381883578566
  z: -0.001210706785028008
  w: 0.9999763450668393
orientation_covariance: [-1.0, 0.0, 0.0, 0.0, 0.0, 0.0, 0.0, 0.0, 0.0]
angular_velocity: 
  x: 1.0429915445552716e-299
  y: 6.9520369779118e-310
  z: 4e-323
angular_velocity_covariance: [-1.0, 0.0, 0.0, 0.0, 0.0, 0.0, 0.0, 0.0, 0.0]
linear_acceleration: 
  x: -0.003604665957518822
  y: 0.02202892231749208
  z: 0.00378519595941769
linear_acceleration_covariance: [0.01, 0.0, 0.0, 0.0, 0.01, 0.0, 0.0, 0.0, 0.01]
---
header: 
  seq: 50
  stamp: 
    secs: 1752028439
    nsecs: 314000000
  frame_id: "imu_link"
orientation: 
  x: 0.006761160709872017
  y: 0.0003561817381297907
  z: -0.0012107454958587222
  w: 0.9999763466881448
orientation_covariance: [-1.0, 0.0, 0.0, 0.0, 0.0, 0.0, 0.0, 0.0, 0.0]
angular_velocity: 
  x: 1.0429915445990017e-299
  y: 6.9520369779118e-310
  z: 4e-323
angular_velocity_covariance: [-1.0, 0.0, 0.0, 0.0, 0.0, 0.0, 0.0, 0.0, 0.0]
linear_acceleration: 
  x: -0.000942676416703883
  y: -0.01918394735085789
  z: 0.0010635036054727944
linear_acceleration_covariance: [0.01, 0.0, 0.0, 0.0, 0.01, 0.0, 0.0, 0.0, 0.01]
---
header: 
  seq: 51
  stamp: 
    secs: 1752028439
    nsecs: 347000000
  frame_id: "imu_link"
orientation: 
  x: 0.0067610947766057515
  y: 0.000356189155358261
  z: -0.001210938933947859
  w: 0.9999763468970682
orientation_covariance: [-1.0, 0.0, 0.0, 0.0, 0.0, 0.0, 0.0, 0.0, 0.0]
angular_velocity: 
  x: 1.0429915446430713e-299
  y: 6.9520369779118e-310
  z: 4e-323
angular_velocity_covariance: [-1.0, 0.0, 0.0, 0.0, 0.0, 0.0, 0.0, 0.0, 0.0]
linear_acceleration: 
  x: 0.0013410312197185777
  y: 0.007689179474060848
  z: -0.0037059278885627407
linear_acceleration_covariance: [0.01, 0.0, 0.0, 0.0, 0.01, 0.0, 0.0, 0.0, 0.01]
---
header: 
  seq: 52
  stamp: 
    secs: 1752028439
    nsecs: 381000000
  frame_id: "imu_link"
orientation: 
  x: 0.006761084989283133
  y: 0.00035711362586607364
  z: -0.001211108717969111
  w: 0.9999763464279039
orientation_covariance: [-1.0, 0.0, 0.0, 0.0, 0.0, 0.0, 0.0, 0.0, 0.0]
angular_velocity: 
  x: 1.0429915446882274e-299
  y: 6.9520369779118e-310
  z: 4e-323
angular_velocity_covariance: [-1.0, 0.0, 0.0, 0.0, 0.0, 0.0, 0.0, 0.0, 0.0]
linear_acceleration: 
  x: 0.0003043832647925299
  y: 0.005884361039851397
  z: 0.00161253562783652
linear_acceleration_covariance: [0.01, 0.0, 0.0, 0.0, 0.01, 0.0, 0.0, 0.0, 0.01]
---
header: 
  seq: 53
  stamp: 
    secs: 1752028439
    nsecs: 414000000
  frame_id: "imu_link"
orientation: 
  x: 0.006761570369117928
  y: 0.00035682672200920717
  z: -0.001211176343419829
  w: 0.9999763431665266
orientation_covariance: [-1.0, 0.0, 0.0, 0.0, 0.0, 0.0, 0.0, 0.0, 0.0]
angular_velocity: 
  x: 1.0429915447313803e-299
  y: 6.9520369779118e-310
  z: 4e-323
angular_velocity_covariance: [-1.0, 0.0, 0.0, 0.0, 0.0, 0.0, 0.0, 0.0, 0.0]
linear_acceleration: 
  x: 0.0021497495661534473
  y: -0.0065079658665483965
  z: -0.0013906465960075935
linear_acceleration_covariance: [0.01, 0.0, 0.0, 0.0, 0.01, 0.0, 0.0, 0.0, 0.01]
---
header: 
  seq: 54
  stamp: 
    secs: 1752028439
    nsecs: 447000000
  frame_id: "imu_link"
orientation: 
  x: 0.006761556723746154
  y: 0.0003577423197727861
  z: -0.0012113468629411175
  w: 0.9999763427251077
orientation_covariance: [-1.0, 0.0, 0.0, 0.0, 0.0, 0.0, 0.0, 0.0, 0.0]
angular_velocity: 
  x: 1.0429915447755518e-299
  y: 6.9520369779118e-310
  z: 4e-323
angular_velocity_covariance: [-1.0, 0.0, 0.0, 0.0, 0.0, 0.0, 0.0, 0.0, 0.0]
linear_acceleration: 
  x: -0.0021935846792519656
  y: 0.0063135740715278155
  z: 0.0016052830996276678
linear_acceleration_covariance: [0.01, 0.0, 0.0, 0.0, 0.01, 0.0, 0.0, 0.0, 0.01]
---
header: 
  seq: 55
  stamp: 
    secs: 1752028439
    nsecs: 479000000
  frame_id: "imu_link"
orientation: 
  x: 0.0067619442299234386
  y: 0.0003572450671991137
  z: -0.0012114208225068668
  w: 0.9999763401929991
orientation_covariance: [-1.0, 0.0, 0.0, 0.0, 0.0, 0.0, 0.0, 0.0, 0.0]
angular_velocity: 
  x: 1.0429915448179577e-299
  y: 6.9520369779118e-310
  z: 4e-323
angular_velocity_covariance: [-1.0, 0.0, 0.0, 0.0, 0.0, 0.0, 0.0, 0.0, 0.0]
linear_acceleration: 
  x: 0.0016374087017482892
  y: -0.007477236525082917
  z: -0.0013709610082791044
linear_acceleration_covariance: [0.01, 0.0, 0.0, 0.0, 0.01, 0.0, 0.0, 0.0, 0.01]
---
header: 
  seq: 56
  stamp: 
    secs: 1752028439
    nsecs: 562000000
  frame_id: "imu_link"
orientation: 
  x: 0.0067607654210385445
  y: 0.00035882798834238643
  z: -0.0012116513965097992
  w: 0.9999763473174201
orientation_covariance: [-1.0, 0.0, 0.0, 0.0, 0.0, 0.0, 0.0, 0.0, 0.0]
angular_velocity: 
  x: 1.0429915449275546e-299
  y: 6.9520369779118e-310
  z: 4e-323
angular_velocity_covariance: [-1.0, 0.0, 0.0, 0.0, 0.0, 0.0, 0.0, 0.0, 0.0]
linear_acceleration: 
  x: -0.0070966524828218166
  y: 0.010086024177682834
  z: 0.005940835840022121
linear_acceleration_covariance: [0.01, 0.0, 0.0, 0.0, 0.01, 0.0, 0.0, 0.0, 0.01]
---
header: 
  seq: 57
  stamp: 
    secs: 1752028439
    nsecs: 592000000
  frame_id: "imu_link"
orientation: 
  x: 0.006760929236381361
  y: 0.00035720715137257963
  z: -0.0012116740703411882
  w: 0.9999763467626916
orientation_covariance: [-1.0, 0.0, 0.0, 0.0, 0.0, 0.0, 0.0, 0.0, 0.0]
angular_velocity: 
  x: 1.0429915449673802e-299
  y: 6.9520369779118e-310
  z: 4e-323
angular_velocity_covariance: [-1.0, 0.0, 0.0, 0.0, 0.0, 0.0, 0.0, 0.0, 0.0]
linear_acceleration: 
  x: 0.005871298855642666
  y: -0.016101081335322
  z: -0.005644300942490885
linear_acceleration_covariance: [0.01, 0.0, 0.0, 0.0, 0.01, 0.0, 0.0, 0.0, 0.01]
---
header: 
  seq: 58
  stamp: 
    secs: 1752028439
    nsecs: 625000000
  frame_id: "imu_link"
orientation: 
  x: 0.006760530125064977
  y: 0.0003594626827370665
  z: -0.0012118863424408985
  w: 0.9999763483955513
orientation_covariance: [-1.0, 0.0, 0.0, 0.0, 0.0, 0.0, 0.0, 0.0, 0.0]
angular_velocity: 
  x: 1.0429915450118233e-299
  y: 6.9520369779118e-310
  z: 4e-323
angular_velocity_covariance: [-1.0, 0.0, 0.0, 0.0, 0.0, 0.0, 0.0, 0.0, 0.0]
linear_acceleration: 
  x: -0.002830264042927468
  y: 0.020832486318953455
  z: 0.0021876386245039095
linear_acceleration_covariance: [0.01, 0.0, 0.0, 0.0, 0.01, 0.0, 0.0, 0.0, 0.01]
---
header: 
  seq: 59
  stamp: 
    secs: 1752028439
    nsecs: 660000000
  frame_id: "imu_link"
orientation: 
  x: 0.006761208073192086
  y: 0.00035750142330037726
  z: -0.0012118893500202852
  w: 0.9999763445113722
orientation_covariance: [-1.0, 0.0, 0.0, 0.0, 0.0, 0.0, 0.0, 0.0, 0.0]
angular_velocity: 
  x: 1.0429915450576244e-299
  y: 6.9520369779118e-310
  z: 4e-323
angular_velocity_covariance: [-1.0, 0.0, 0.0, 0.0, 0.0, 0.0, 0.0, 0.0, 0.0]
linear_acceleration: 
  x: 0.005568594878272919
  y: -0.022510813768565934
  z: -0.004355065524186925
linear_acceleration_covariance: [0.01, 0.0, 0.0, 0.0, 0.01, 0.0, 0.0, 0.0, 0.01]
---
header: 
  seq: 60
  stamp: 
    secs: 1752028439
    nsecs: 692000000
  frame_id: "imu_link"
orientation: 
  x: 0.006761713003312191
  y: 0.00035674718115832904
  z: -0.0012120775172518728
  w: 0.9999763411385298
orientation_covariance: [-1.0, 0.0, 0.0, 0.0, 0.0, 0.0, 0.0, 0.0, 0.0]
angular_velocity: 
  x: 1.0429915451004378e-299
  y: 6.9520369779118e-310
  z: 4e-323
angular_velocity_covariance: [-1.0, 0.0, 0.0, 0.0, 0.0, 0.0, 0.0, 0.0, 0.0]
linear_acceleration: 
  x: -0.0006726944020734174
  y: 0.006308496186092437
  z: 0.001895589651300142
linear_acceleration_covariance: [0.01, 0.0, 0.0, 0.0, 0.01, 0.0, 0.0, 0.0, 0.01]
---
header: 
  seq: 61
  stamp: 
    secs: 1752028439
    nsecs: 725000000
  frame_id: "imu_link"
orientation: 
  x: 0.006761713003312191
  y: 0.00035674718115832904
  z: -0.0012120775172518728
  w: 0.9999763411385298
orientation_covariance: [-1.0, 0.0, 0.0, 0.0, 0.0, 0.0, 0.0, 0.0, 0.0]
angular_velocity: 
  x: 1.0429915451448809e-299
  y: 6.9520369779118e-310
  z: 4e-323
angular_velocity_covariance: [-1.0, 0.0, 0.0, 0.0, 0.0, 0.0, 0.0, 0.0, 0.0]
linear_acceleration: 
  x: -0.002607117612103089
  y: 0.00532329444375149
  z: 0.0015455534599700725
linear_acceleration_covariance: [0.01, 0.0, 0.0, 0.0, 0.01, 0.0, 0.0, 0.0, 0.01]
---
header: 
  seq: 62
  stamp: 
    secs: 1752028439
    nsecs: 758000000
  frame_id: "imu_link"
orientation: 
  x: 0.006762024779406355
  y: 0.0003563382183532085
  z: -0.0012122849280492229
  w: 0.9999763389246819
orientation_covariance: [-1.0, 0.0, 0.0, 0.0, 0.0, 0.0, 0.0, 0.0, 0.0]
angular_velocity: 
  x: 1.042991545187864e-299
  y: 6.9520369779118e-310
  z: 4e-323
angular_velocity_covariance: [-1.0, 0.0, 0.0, 0.0, 0.0, 0.0, 0.0, 0.0, 0.0]
linear_acceleration: 
  x: 0.0016716224915195187
  y: -0.0046004432775463245
  z: -0.002410475921520311
linear_acceleration_covariance: [0.01, 0.0, 0.0, 0.0, 0.01, 0.0, 0.0, 0.0, 0.01]
---
header: 
  seq: 63
  stamp: 
    secs: 1752028439
    nsecs: 792000000
  frame_id: "imu_link"
orientation: 
  x: 0.006760373271760968
  y: 0.0003581843768004081
  z: -0.00121254110469022
  w: 0.999976349120942
orientation_covariance: [-1.0, 0.0, 0.0, 0.0, 0.0, 0.0, 0.0, 0.0, 0.0]
angular_velocity: 
  x: 1.0429915452336652e-299
  y: 6.9520369779118e-310
  z: 4e-323
angular_velocity_covariance: [-1.0, 0.0, 0.0, 0.0, 0.0, 0.0, 0.0, 0.0, 0.0]
linear_acceleration: 
  x: -0.009762488114862503
  y: 0.012196726806410317
  z: 0.007946460550828717
linear_acceleration_covariance: [0.01, 0.0, 0.0, 0.0, 0.01, 0.0, 0.0, 0.0, 0.01]
---
header: 
  seq: 64
  stamp: 
    secs: 1752028439
    nsecs: 826000000
  frame_id: "imu_link"
orientation: 
  x: 0.0067607351057114625
  y: 0.0003567058565097372
  z: -0.0012125447173663925
  w: 0.9999763471988079
orientation_covariance: [-1.0, 0.0, 0.0, 0.0, 0.0, 0.0, 0.0, 0.0, 0.0]
angular_velocity: 
  x: 1.0429915452781422e-299
  y: 6.9520369779118e-310
  z: 4e-323
angular_velocity_covariance: [-1.0, 0.0, 0.0, 0.0, 0.0, 0.0, 0.0, 0.0, 0.0]
linear_acceleration: 
  x: 0.009588382121268835
  y: -0.016741804272310444
  z: -0.007250592351966992
linear_acceleration_covariance: [0.01, 0.0, 0.0, 0.0, 0.01, 0.0, 0.0, 0.0, 0.01]
---
header: 
  seq: 65
  stamp: 
    secs: 1752028439
    nsecs: 858000000
  frame_id: "imu_link"
orientation: 
  x: 0.006760542503517406
  y: 0.0003588686786318854
  z: -0.0012127837175555248
  w: 0.99997634743727
orientation_covariance: [-1.0, 0.0, 0.0, 0.0, 0.0, 0.0, 0.0, 0.0, 0.0]
angular_velocity: 
  x: 1.0429915453212612e-299
  y: 6.9520369779118e-310
  z: 4e-323
angular_velocity_covariance: [-1.0, 0.0, 0.0, 0.0, 0.0, 0.0, 0.0, 0.0, 0.0]
linear_acceleration: 
  x: -0.00251903628222504
  y: 0.019666252963732655
  z: 0.0013799828150727552
linear_acceleration_covariance: [0.01, 0.0, 0.0, 0.0, 0.01, 0.0, 0.0, 0.0, 0.01]
---
header: 
  seq: 66
  stamp: 
    secs: 1752028439
    nsecs: 940000000
  frame_id: "imu_link"
orientation: 
  x: 0.006761187223127163
  y: 0.0003573901598400711
  z: -0.0012127692693886956
  w: 0.9999763436253415
orientation_covariance: [-1.0, 0.0, 0.0, 0.0, 0.0, 0.0, 0.0, 0.0, 0.0]
angular_velocity: 
  x: 1.0429915454290246e-299
  y: 6.9520369779118e-310
  z: 4e-323
angular_velocity_covariance: [-1.0, 0.0, 0.0, 0.0, 0.0, 0.0, 0.0, 0.0, 0.0]
linear_acceleration: 
  x: 0.0041278143052787255
  y: -0.01975126388458026
  z: -0.0018329760388550234
linear_acceleration_covariance: [0.01, 0.0, 0.0, 0.0, 0.01, 0.0, 0.0, 0.0, 0.01]
---
header: 
  seq: 67
  stamp: 
    secs: 1752028439
    nsecs: 973000000
  frame_id: "imu_link"
orientation: 
  x: 0.006761094862300618
  y: 0.00035865984814370555
  z: -0.0012129535153658853
  w: 0.9999763435717596
orientation_covariance: [-1.0, 0.0, 0.0, 0.0, 0.0, 0.0, 0.0, 0.0, 0.0]
angular_velocity: 
  x: 1.0429915454728905e-299
  y: 6.9520369779118e-310
  z: 4e-323
angular_velocity_covariance: [-1.0, 0.0, 0.0, 0.0, 0.0, 0.0, 0.0, 0.0, 0.0]
linear_acceleration: 
  x: -0.0035164831959363764
  y: 0.01626952097696113
  z: 0.0023735577774689712
linear_acceleration_covariance: [0.01, 0.0, 0.0, 0.0, 0.01, 0.0, 0.0, 0.0, 0.01]
---
header: 
  seq: 68
  stamp: 
    secs: 1752028440
    nsecs:   6000000
  frame_id: "imu_link"
orientation: 
  x: 0.006761655565131175
  y: 0.0003576216186621519
  z: -0.0012130130075025127
  w: 0.9999763400802242
orientation_covariance: [-1.0, 0.0, 0.0, 0.0, 0.0, 0.0, 0.0, 0.0, 0.0]
angular_velocity: 
  x: 1.0429915455175373e-299
  y: 6.9520369779118e-310
  z: 4e-323
angular_velocity_covariance: [-1.0, 0.0, 0.0, 0.0, 0.0, 0.0, 0.0, 0.0, 0.0]
linear_acceleration: 
  x: 0.003273038855574384
  y: -0.015421642445311915
  z: -0.002549413929449955
linear_acceleration_covariance: [0.01, 0.0, 0.0, 0.0, 0.01, 0.0, 0.0, 0.0, 0.01]
---
header: 
  seq: 69
  stamp: 
    secs: 1752028440
    nsecs:  39000000
  frame_id: "imu_link"
orientation: 
  x: 0.0067613223128698335
  y: 0.00035643090441323005
  z: -0.001213223861294342
  w: 0.9999763425028886
orientation_covariance: [-1.0, 0.0, 0.0, 0.0, 0.0, 0.0, 0.0, 0.0, 0.0]
angular_velocity: 
  x: 1.0429915455605544e-299
  y: 6.9520369779118e-310
  z: 4e-323
angular_velocity_covariance: [-1.0, 0.0, 0.0, 0.0, 0.0, 0.0, 0.0, 0.0, 0.0]
linear_acceleration: 
  x: -0.004263868998705069
  y: 0.00019715033271958788
  z: 0.003025358081306293
linear_acceleration_covariance: [0.01, 0.0, 0.0, 0.0, 0.01, 0.0, 0.0, 0.0, 0.01]
---
header: 
  seq: 70
  stamp: 
    secs: 1752028440
    nsecs:  73000000
  frame_id: "imu_link"
orientation: 
  x: 0.006760520027531223
  y: 0.00035783694589885983
  z: -0.0012133939982773298
  w: 0.999976347218614
orientation_covariance: [-1.0, 0.0, 0.0, 0.0, 0.0, 0.0, 0.0, 0.0, 0.0]
angular_velocity: 
  x: 1.0429915456063895e-299
  y: 6.9520369779118e-310
  z: 4e-323
angular_velocity_covariance: [-1.0, 0.0, 0.0, 0.0, 0.0, 0.0, 0.0, 0.0, 0.0]
linear_acceleration: 
  x: -0.0027739457226656143
  y: 0.014145617400696945
  z: 0.0015645905445845058
linear_acceleration_covariance: [0.01, 0.0, 0.0, 0.0, 0.01, 0.0, 0.0, 0.0, 0.01]
---
header: 
  seq: 71
  stamp: 
    secs: 1752028440
    nsecs: 106000000
  frame_id: "imu_link"
orientation: 
  x: 0.006760933208532331
  y: 0.0003569853258688364
  z: -0.0012134595387646384
  w: 0.9999763446499993
orientation_covariance: [-1.0, 0.0, 0.0, 0.0, 0.0, 0.0, 0.0, 0.0, 0.0]
angular_velocity: 
  x: 1.0429915456489992e-299
  y: 6.9520369779118e-310
  z: 4e-323
angular_velocity_covariance: [-1.0, 0.0, 0.0, 0.0, 0.0, 0.0, 0.0, 0.0, 0.0]
linear_acceleration: 
  x: 0.005896048083896672
  y: -0.011523540886541091
  z: -0.004672048820802607
linear_acceleration_covariance: [0.01, 0.0, 0.0, 0.0, 0.01, 0.0, 0.0, 0.0, 0.01]
---
header: 
  seq: 72
  stamp: 
    secs: 1752028440
    nsecs: 139000000
  frame_id: "imu_link"
orientation: 
  x: 0.006760942967728783
  y: 0.0003580701127939848
  z: -0.0012136391294016455
  w: 0.9999763439782189
orientation_covariance: [-1.0, 0.0, 0.0, 0.0, 0.0, 0.0, 0.0, 0.0, 0.0]
angular_velocity: 
  x: 1.042991545692933e-299
  y: 6.9520369779118e-310
  z: 4e-323
angular_velocity_covariance: [-1.0, 0.0, 0.0, 0.0, 0.0, 0.0, 0.0, 0.0, 0.0]
linear_acceleration: 
  x: -0.00143124043225066
  y: 0.009924235333680882
  z: 0.0021744690325839785
linear_acceleration_covariance: [0.01, 0.0, 0.0, 0.0, 0.01, 0.0, 0.0, 0.0, 0.01]
---
header: 
  seq: 73
  stamp: 
    secs: 1752028440
    nsecs: 174000000
  frame_id: "imu_link"
orientation: 
  x: 0.0067615811470607716
  y: 0.00035596314314942395
  z: -0.0012136519637689575
  w: 0.9999763403998834
orientation_covariance: [-1.0, 0.0, 0.0, 0.0, 0.0, 0.0, 0.0, 0.0, 0.0]
angular_velocity: 
  x: 1.0429915457396848e-299
  y: 6.9520369779118e-310
  z: 4e-323
angular_velocity_covariance: [-1.0, 0.0, 0.0, 0.0, 0.0, 0.0, 0.0, 0.0, 0.0]
linear_acceleration: 
  x: 0.002843279765077626
  y: -0.016710376767036225
  z: -0.002905584493465155
linear_acceleration_covariance: [0.01, 0.0, 0.0, 0.0, 0.01, 0.0, 0.0, 0.0, 0.01]
---
header: 
  seq: 74
  stamp: 
    secs: 1752028440
    nsecs: 206000000
  frame_id: "imu_link"
orientation: 
  x: 0.006761392121027641
  y: 0.00035796641652827176
  z: -0.0012138402950796566
  w: 0.9999763407343036
orientation_covariance: [-1.0, 0.0, 0.0, 0.0, 0.0, 0.0, 0.0, 0.0, 0.0]
angular_velocity: 
  x: 1.0429915457827019e-299
  y: 6.9520369779118e-310
  z: 4e-323
angular_velocity_covariance: [-1.0, 0.0, 0.0, 0.0, 0.0, 0.0, 0.0, 0.0, 0.0]
linear_acceleration: 
  x: -0.003881951428364472
  y: 0.021733184300002015
  z: 0.003977744938666367
linear_acceleration_covariance: [0.01, 0.0, 0.0, 0.0, 0.01, 0.0, 0.0, 0.0, 0.01]
---
header: 
  seq: 75
  stamp: 
    secs: 1752028440
    nsecs: 287000000
  frame_id: "imu_link"
orientation: 
  x: 0.006762020185475341
  y: 0.0003559693304156232
  z: -0.0012138404679681108
  w: 0.9999763372001187
orientation_covariance: [-1.0, 0.0, 0.0, 0.0, 0.0, 0.0, 0.0, 0.0, 0.0]
angular_velocity: 
  x: 1.0429915458895147e-299
  y: 6.9520369779118e-310
  z: 4e-323
angular_velocity_covariance: [-1.0, 0.0, 0.0, 0.0, 0.0, 0.0, 0.0, 0.0, 0.0]
linear_acceleration: 
  x: 0.00376289013369803
  y: -0.021194103498732474
  z: -0.004002654989872959
linear_acceleration_covariance: [0.01, 0.0, 0.0, 0.0, 0.01, 0.0, 0.0, 0.0, 0.01]
---
header: 
  seq: 76
  stamp: 
    secs: 1752028440
    nsecs: 318000000
  frame_id: "imu_link"
orientation: 
  x: 0.006761023460608202
  y: 0.00035631833235713644
  z: -0.0012140766652830046
  w: 0.9999763435286168
orientation_covariance: [-1.0, 0.0, 0.0, 0.0, 0.0, 0.0, 0.0, 0.0, 0.0]
angular_velocity: 
  x: 1.0429915459311397e-299
  y: 6.9520369779118e-310
  z: 4e-323
angular_velocity_covariance: [-1.0, 0.0, 0.0, 0.0, 0.0, 0.0, 0.0, 0.0, 0.0]
linear_acceleration: 
  x: -0.008085138292277283
  y: 0.011424175235202831
  z: 0.006901451790286921
linear_acceleration_covariance: [0.01, 0.0, 0.0, 0.0, 0.01, 0.0, 0.0, 0.0, 0.01]
---
header: 
  seq: 77
  stamp: 
    secs: 1752028440
    nsecs: 350000000
  frame_id: "imu_link"
orientation: 
  x: 0.00676068427455923
  y: 0.00035747480037320894
  z: -0.0012142560547551984
  w: 0.9999763451912952
orientation_covariance: [-1.0, 0.0, 0.0, 0.0, 0.0, 0.0, 0.0, 0.0, 0.0]
angular_velocity: 
  x: 1.0429915459729346e-299
  y: 6.9520369779118e-310
  z: 4e-323
angular_velocity_covariance: [-1.0, 0.0, 0.0, 0.0, 0.0, 0.0, 0.0, 0.0, 0.0]
linear_acceleration: 
  x: 0.0032805302319927894
  y: 0.005395646246643712
  z: -0.003654397966629969
linear_acceleration_covariance: [0.01, 0.0, 0.0, 0.0, 0.01, 0.0, 0.0, 0.0, 0.01]
---
header: 
  seq: 78
  stamp: 
    secs: 1752028440
    nsecs: 384000000
  frame_id: "imu_link"
orientation: 
  x: 0.0067612223838170215
  y: 0.0003568846202402222
  z: -0.0012143187550585292
  w: 0.999976341687745
orientation_covariance: [-1.0, 0.0, 0.0, 0.0, 0.0, 0.0, 0.0, 0.0, 0.0]
angular_velocity: 
  x: 1.0429915460182264e-299
  y: 6.9520369779118e-310
  z: 4e-323
angular_velocity_covariance: [-1.0, 0.0, 0.0, 0.0, 0.0, 0.0, 0.0, 0.0, 0.0]
linear_acceleration: 
  x: 0.004275926362325122
  y: -0.009324434471973415
  z: -0.002326039431168909
linear_acceleration_covariance: [0.01, 0.0, 0.0, 0.0, 0.01, 0.0, 0.0, 0.0, 0.01]
---
header: 
  seq: 79
  stamp: 
    secs: 1752028440
    nsecs: 418000000
  frame_id: "imu_link"
orientation: 
  x: 0.0067612803450530536
  y: 0.00035788056118801786
  z: -0.0012144983164347348
  w: 0.9999763407218386
orientation_covariance: [-1.0, 0.0, 0.0, 0.0, 0.0, 0.0, 0.0, 0.0, 0.0]
angular_velocity: 
  x: 1.0429915460627714e-299
  y: 6.9520369779118e-310
  z: 4e-323
angular_velocity_covariance: [-1.0, 0.0, 0.0, 0.0, 0.0, 0.0, 0.0, 0.0, 0.0]
linear_acceleration: 
  x: -0.0018699193629774498
  y: 0.008278105431967057
  z: 0.0018184309210195222
linear_acceleration_covariance: [0.01, 0.0, 0.0, 0.0, 0.01, 0.0, 0.0, 0.0, 0.01]
---
header: 
  seq: 80
  stamp: 
    secs: 1752028440
    nsecs: 450000000
  frame_id: "imu_link"
orientation: 
  x: 0.006761863477513679
  y: 0.0003572794505189162
  z: -0.0012145597448386123
  w: 0.9999763369191954
orientation_covariance: [-1.0, 0.0, 0.0, 0.0, 0.0, 0.0, 0.0, 0.0, 0.0]
angular_velocity: 
  x: 1.0429915461055169e-299
  y: 6.9520369779118e-310
  z: 4e-323
angular_velocity_covariance: [-1.0, 0.0, 0.0, 0.0, 0.0, 0.0, 0.0, 0.0, 0.0]
linear_acceleration: 
  x: 0.002196300180940481
  y: -0.008432441553421993
  z: -0.0016539540808779213
linear_acceleration_covariance: [0.01, 0.0, 0.0, 0.0, 0.01, 0.0, 0.0, 0.0, 0.01]
---
header: 
  seq: 81
  stamp: 
    secs: 1752028440
    nsecs: 484000000
  frame_id: "imu_link"
orientation: 
  x: 0.006761724151678395
  y: 0.00035818795796815943
  z: -0.0012147439749021715
  w: 0.9999763373125179
orientation_covariance: [-1.0, 0.0, 0.0, 0.0, 0.0, 0.0, 0.0, 0.0, 0.0]
angular_velocity: 
  x: 1.042991546150673e-299
  y: 6.9520369779118e-310
  z: 4e-323
angular_velocity_covariance: [-1.0, 0.0, 0.0, 0.0, 0.0, 0.0, 0.0, 0.0, 0.0]
linear_acceleration: 
  x: -0.0031981821343898343
  y: 0.007938872294064477
  z: 0.002245717763483962
linear_acceleration_covariance: [0.01, 0.0, 0.0, 0.0, 0.01, 0.0, 0.0, 0.0, 0.01]
---
header: 
  seq: 82
  stamp: 
    secs: 1752028440
    nsecs: 517000000
  frame_id: "imu_link"
orientation: 
  x: 0.00676124413509966
  y: 0.0003569085805689713
  z: -0.0012148906315338232
  w: 0.9999763408375041
orientation_covariance: [-1.0, 0.0, 0.0, 0.0, 0.0, 0.0, 0.0, 0.0, 0.0]
angular_velocity: 
  x: 1.0429915461947086e-299
  y: 6.9520369779118e-310
  z: 4e-323
angular_velocity_covariance: [-1.0, 0.0, 0.0, 0.0, 0.0, 0.0, 0.0, 0.0, 0.0]
linear_acceleration: 
  x: -0.0017127484234728259
  y: -0.012380316215476807
  z: 0.0015635000038729276
linear_acceleration_covariance: [0.01, 0.0, 0.0, 0.0, 0.01, 0.0, 0.0, 0.0, 0.01]
---
header: 
  seq: 83
  stamp: 
    secs: 1752028440
    nsecs: 551000000
  frame_id: "imu_link"
orientation: 
  x: 0.006759995115743883
  y: 0.000359831501889091
  z: -0.0012150579507082828
  w: 0.999976348031043
orientation_covariance: [-1.0, 0.0, 0.0, 0.0, 0.0, 0.0, 0.0, 0.0, 0.0]
angular_velocity: 
  x: 1.042991546239627e-299
  y: 6.9520369779118e-310
  z: 4e-323
angular_velocity_covariance: [-1.0, 0.0, 0.0, 0.0, 0.0, 0.0, 0.0, 0.0, 0.0]
linear_acceleration: 
  x: -0.004745568954227695
  y: 0.0230384108980976
  z: 0.0023631286837845797
linear_acceleration_covariance: [0.01, 0.0, 0.0, 0.0, 0.01, 0.0, 0.0, 0.0, 0.01]
---
header: 
  seq: 84
  stamp: 
    secs: 1752028440
    nsecs: 584000000
  frame_id: "imu_link"
orientation: 
  x: 0.006760519633526643
  y: 0.0003578804233128065
  z: -0.0012150634722516852
  w: 0.9999763451785474
orientation_covariance: [-1.0, 0.0, 0.0, 0.0, 0.0, 0.0, 0.0, 0.0, 0.0]
angular_velocity: 
  x: 1.0429915462829157e-299
  y: 6.9520369779118e-310
  z: 4e-323
angular_velocity_covariance: [-1.0, 0.0, 0.0, 0.0, 0.0, 0.0, 0.0, 0.0, 0.0]
linear_acceleration: 
  x: 0.00911716261282973
  y: -0.025613221837541045
  z: -0.007256826076190425
linear_acceleration_covariance: [0.01, 0.0, 0.0, 0.0, 0.01, 0.0, 0.0, 0.0, 0.01]
---
header: 
  seq: 85
  stamp: 
    secs: 1752028440
    nsecs: 665000000
  frame_id: "imu_link"
orientation: 
  x: 0.006760177290684793
  y: 0.0003605151485051031
  z: -0.0012153364944466625
  w: 0.9999763462147648
orientation_covariance: [-1.0, 0.0, 0.0, 0.0, 0.0, 0.0, 0.0, 0.0, 0.0]
angular_velocity: 
  x: 1.0429915463909168e-299
  y: 6.9520369779118e-310
  z: 4e-323
angular_velocity_covariance: [-1.0, 0.0, 0.0, 0.0, 0.0, 0.0, 0.0, 0.0, 0.0]
linear_acceleration: 
  x: -0.0037949356974608184
  y: 0.024117413201302132
  z: 0.004472894424068647
linear_acceleration_covariance: [0.01, 0.0, 0.0, 0.0, 0.01, 0.0, 0.0, 0.0, 0.01]
---
header: 
  seq: 86
  stamp: 
    secs: 1752028440
    nsecs: 698000000
  frame_id: "imu_link"
orientation: 
  x: 0.006760825440893685
  y: 0.00035847992137069706
  z: -0.0012153474213765514
  w: 0.999976342551237
orientation_covariance: [-1.0, 0.0, 0.0, 0.0, 0.0, 0.0, 0.0, 0.0, 0.0]
angular_velocity: 
  x: 1.0429915464341376e-299
  y: 6.9520369779118e-310
  z: 4e-323
angular_velocity_covariance: [-1.0, 0.0, 0.0, 0.0, 0.0, 0.0, 0.0, 0.0, 0.0]
linear_acceleration: 
  x: 0.004705436734310332
  y: -0.024628093239927186
  z: -0.004552400025848635
linear_acceleration_covariance: [0.01, 0.0, 0.0, 0.0, 0.01, 0.0, 0.0, 0.0, 0.01]
---
header: 
  seq: 87
  stamp: 
    secs: 1752028440
    nsecs: 731000000
  frame_id: "imu_link"
orientation: 
  x: 0.006761477122723186
  y: 0.0003572065125321548
  z: -0.0012155169986768574
  w: 0.9999763383945901
orientation_covariance: [-1.0, 0.0, 0.0, 0.0, 0.0, 0.0, 0.0, 0.0, 0.0]
angular_velocity: 
  x: 1.0429915464781733e-299
  y: 6.9520369779118e-310
  z: 4e-323
angular_velocity_covariance: [-1.0, 0.0, 0.0, 0.0, 0.0, 0.0, 0.0, 0.0, 0.0]
linear_acceleration: 
  x: 0.00035274660583201555
  y: 0.0038296747913056685
  z: 0.0009298417202188721
linear_acceleration_covariance: [0.01, 0.0, 0.0, 0.0, 0.01, 0.0, 0.0, 0.0, 0.01]
---
header: 
  seq: 88
  stamp: 
    secs: 1752028440
    nsecs: 764000000
  frame_id: "imu_link"
orientation: 
  x: 0.00676126553830595
  y: 0.0003580278237191317
  z: -0.0012156775843118622
  w: 0.9999763393362912
orientation_covariance: [-1.0, 0.0, 0.0, 0.0, 0.0, 0.0, 0.0, 0.0, 0.0]
angular_velocity: 
  x: 1.0429915465220731e-299
  y: 6.9520369779118e-310
  z: 4e-323
angular_velocity_covariance: [-1.0, 0.0, 0.0, 0.0, 0.0, 0.0, 0.0, 0.0, 0.0]
linear_acceleration: 
  x: -0.004308548345232179
  y: 0.011204904970805642
  z: 0.002508416649432359
linear_acceleration_covariance: [0.01, 0.0, 0.0, 0.0, 0.01, 0.0, 0.0, 0.0, 0.01]
---
header: 
  seq: 89
  stamp: 
    secs: 1752028440
    nsecs: 796000000
  frame_id: "imu_link"
orientation: 
  x: 0.0067602136775537815
  y: 0.0003579272057347152
  z: -0.00121577831488675
  w: 0.9999763463613717
orientation_covariance: [-1.0, 0.0, 0.0, 0.0, 0.0, 0.0, 0.0, 0.0, 0.0]
angular_velocity: 
  x: 1.042991546564547e-299
  y: 6.9520369779118e-310
  z: 4e-323
angular_velocity_covariance: [-1.0, 0.0, 0.0, 0.0, 0.0, 0.0, 0.0, 0.0, 0.0]
linear_acceleration: 
  x: -0.004879452691404972
  y: -0.00550629907402052
  z: 0.003025960409145337
linear_acceleration_covariance: [0.01, 0.0, 0.0, 0.0, 0.01, 0.0, 0.0, 0.0, 0.01]
---
header: 
  seq: 90
  stamp: 
    secs: 1752028440
    nsecs: 830000000
  frame_id: "imu_link"
orientation: 
  x: 0.00675993869448155
  y: 0.00035900311662631656
  z: -0.001215962055979667
  w: 0.999976347611226
orientation_covariance: [-1.0, 0.0, 0.0, 0.0, 0.0, 0.0, 0.0, 0.0, 0.0]
angular_velocity: 
  x: 1.04299154661045e-299
  y: 6.9520369779118e-310
  z: 4e-323
angular_velocity_covariance: [-1.0, 0.0, 0.0, 0.0, 0.0, 0.0, 0.0, 0.0, 0.0]
linear_acceleration: 
  x: 0.004116282758270055
  y: 0.006986286248829612
  z: -0.003264722572858325
linear_acceleration_covariance: [0.01, 0.0, 0.0, 0.0, 0.01, 0.0, 0.0, 0.0, 0.01]
---
header: 
  seq: 91
  stamp: 
    secs: 1752028440
    nsecs: 865000000
  frame_id: "imu_link"
orientation: 
  x: 0.00676056461342756
  y: 0.0003572665609501426
  z: -0.0012159650005140476
  w: 0.9999763439981116
orientation_covariance: [-1.0, 0.0, 0.0, 0.0, 0.0, 0.0, 0.0, 0.0, 0.0]
angular_velocity: 
  x: 1.0429915466562512e-299
  y: 6.9520369779118e-310
  z: 4e-323
angular_velocity_covariance: [-1.0, 0.0, 0.0, 0.0, 0.0, 0.0, 0.0, 0.0, 0.0]
linear_acceleration: 
  x: 0.004867819064175516
  y: -0.015563524699619198
  z: -0.0031920467356435084
linear_acceleration_covariance: [0.01, 0.0, 0.0, 0.0, 0.01, 0.0, 0.0, 0.0, 0.01]
---
header: 
  seq: 92
  stamp: 
    secs: 1752028440
    nsecs: 897000000
  frame_id: "imu_link"
orientation: 
  x: 0.006760478154269949
  y: 0.00035863008684675096
  z: -0.0012161811035435607
  w: 0.9999763438317477
orientation_covariance: [-1.0, 0.0, 0.0, 0.0, 0.0, 0.0, 0.0, 0.0, 0.0]
angular_velocity: 
  x: 1.0429915466992343e-299
  y: 6.9520369779118e-310
  z: 4e-323
angular_velocity_covariance: [-1.0, 0.0, 0.0, 0.0, 0.0, 0.0, 0.0, 0.0, 0.0]
linear_acceleration: 
  x: -0.0037821182279333724
  y: 0.017815315633936263
  z: 0.003474292562545312
linear_acceleration_covariance: [0.01, 0.0, 0.0, 0.0, 0.01, 0.0, 0.0, 0.0, 0.01]
---
header: 
  seq: 93
  stamp: 
    secs: 1752028440
    nsecs: 930000000
  frame_id: "imu_link"
orientation: 
  x: 0.006761123549695053
  y: 0.000356917750298669
  z: -0.0012161646184237495
  w: 0.9999763401009477
orientation_covariance: [-1.0, 0.0, 0.0, 0.0, 0.0, 0.0, 0.0, 0.0, 0.0]
angular_velocity: 
  x: 1.0429915467430663e-299
  y: 6.9520369779118e-310
  z: 4e-323
angular_velocity_covariance: [-1.0, 0.0, 0.0, 0.0, 0.0, 0.0, 0.0, 0.0, 0.0]
linear_acceleration: 
  x: 0.0036153792875184966
  y: -0.017250657944284795
  z: -0.002515451309532561
linear_acceleration_covariance: [0.01, 0.0, 0.0, 0.0, 0.01, 0.0, 0.0, 0.0, 0.01]
---
header: 
  seq: 94
  stamp: 
    secs: 1752028441
    nsecs:  14000000
  frame_id: "imu_link"
orientation: 
  x: 0.0067617004240536115
  y: 0.00035573962780713364
  z: -0.0012163505672644426
  w: 0.999976336394012
orientation_covariance: [-1.0, 0.0, 0.0, 0.0, 0.0, 0.0, 0.0, 0.0, 0.0]
angular_velocity: 
  x: 1.0429915468533761e-299
  y: 6.9520369779118e-310
  z: 4e-323
angular_velocity_covariance: [-1.0, 0.0, 0.0, 0.0, 0.0, 0.0, 0.0, 0.0, 0.0]
linear_acceleration: 
  x: -0.000133351460905466
  y: 0.002970355282895783
  z: -0.0006001335939741825
linear_acceleration_covariance: [0.01, 0.0, 0.0, 0.0, 0.01, 0.0, 0.0, 0.0, 0.01]
---
header: 
  seq: 95
  stamp: 
    secs: 1752028441
    nsecs:  45000000
  frame_id: "imu_link"
orientation: 
  x: 0.006760450763499437
  y: 0.0003575472881417743
  z: -0.0012165663646004018
  w: 0.9999763439360414
orientation_covariance: [-1.0, 0.0, 0.0, 0.0, 0.0, 0.0, 0.0, 0.0, 0.0]
angular_velocity: 
  x: 1.04299154689439e-299
  y: 6.9520369779118e-310
  z: 4e-323
angular_velocity_covariance: [-1.0, 0.0, 0.0, 0.0, 0.0, 0.0, 0.0, 0.0, 0.0]
linear_acceleration: 
